会社コード,業種名,和文社名,住所,lat,lon,エリア
222368,他サービス,テュフズードオータマ（株）,東京都稲城市押立１７４４－９５,35.6465438,139.5190612,-
220843,情報・システム・ソフト,メダシス・ジャパン（株）,東京都稲城市東長沼２１２０－６－１０１,35.6377586,139.5021243,-
202207,食料品卸売,日本マレット（株）,東京都葛飾区堀切４－６６－１　ミヨシ油脂（株）内,35.7496913,139.8227802,-
222361,機械卸売,フリスタン・ポンプ・ジャパン（株）,東京都江戸川区松江５－１１－７,35.6897746,139.8693085,-
380960,精密機器卸売,（株）ハイテックマルチプレックスジャパン,東京都江戸川区西小岩１－３０－１０　１階,35.7356651,139.8839349,-
403144,他サービス,ベルフォアジャパン（株）,東京都江戸川区臨海町３－６－４　ＢＥＣビル５階,35.6465979,139.8689661,-
4710,他サービス,インターテック　テスティング　サーヴィセスジャパン（株）,東京都江東区永代２－３１－１　ＣＯＩ永代ビル,35.6737911,139.792292,-
220751,他サービス,（株）コダック情報システムズ,東京都江東区牡丹１－１４－１　ＫＤＸ門前仲町ビル,35.6708899,139.7936875,-
101022,電気機器卸売,ワゴジャパン（株）,東京都江東区亀戸１－５－７　日鐵ＮＤタワー４階,35.6952738,139.8202639,-
6750,その他卸売,メリタジャパン（株）,東京都江東区亀戸２－２６－１０　立花亀戸ビル６階,35.6987089,139.8251786,-
410162,コンサルティング,スマートパートナーズ（株）,東京都江東区高橋７－５　薄羽ビル,35.6850744,139.8001902,-
4900,電気機器,日本アジャックス・マグネサーミック（株）,東京都江東区新砂１－６－３５　Ｎビル東陽町,35.6676832,139.8233398,-
7740,医薬品,日本メジフィジックス（株）,東京都江東区新砂３－４－１０,35.66424,139.8361181,-
208473,機械卸売,ハウニ・ジャパン（株）,東京都江東区新木場１－８－１０　深和ビル,35.6464699,139.834933,-
392520,繊維・衣服卸売,（株）ルービーズジャパン,東京都江東区新木場２－１５－１４,35.6391989,139.821641,-
209070,機械卸売,スナップオン・ツールズ（株）,東京都江東区新木場２－１－６,35.6408198,139.8233598,-
210074,他製造業,フォトビションジャパン（株）,東京都江東区新木場２－２－９,35.6418672,139.8251589,-
207158,化学,ジャパンカーボライン（株）,東京都江東区深川１－１－５　和倉ビル,35.6746383,139.7957451,-
100730,鉄鋼・金属卸売,日本五金鉱産（株）,東京都江東区深川２－７－１５,35.6747124,139.7971445,-
222176,精密機器卸売,（株）日本ローパー,東京都江東区深川２－８－１９　サクライビル１階,35.6749219,139.7978427,-
360027,その他卸売,テーラーメイド　ゴルフ（株）,東京都江東区青海２－４－２４　青海フロンティアビル,35.6176484,139.7783933,-
225069,非鉄金属,（株）アドバンスト・ケーブル・システムズ,東京都江東区青海２－４－３２　タイム２４ビル１１階,35.6175548,139.7770439,-
220701,情報・システム・ソフト,アイピーロックス　ジャパン（株）,東京都江東区青海２－７－４　ｔｈｅＳＯＨＯ６３７,35.6186842,139.7736945,-
104439,電気機器,日本ヒューレット・パッカード（株）,東京都江東区大島２－２－１,35.6908935,139.8209815,-
220803,リース,日本ＨＰファイナンシャルサービス（株）,東京都江東区大島２－２－１,35.6908935,139.8209815,-
222102,電気機器卸売,ジーディー自動機械（株）,東京都江東区辰巳３－１５－２０,35.644644,139.8187893,-
100327,貨物運送,シーバ　ロジスティクス　ジャパン（株）,東京都江東区冬木１１－１７　イシマビル１２階,35.6735212,139.8000803,-
392726,その他卸売,ミルテニーバイオテク（株）,東京都江東区冬木１６－１０　日通永代ビル５階,35.6747392,139.8016426,-
100147,その他卸売,アクシネットジャパンインク（日本支店）（登記社名　アクシネット・ジャパン・インク）,東京都江東区東陽２－２－２０　東陽駅前ビル,35.666358,139.8159928,-
3270,機械卸売,フォス・ジャパン（株）,東京都江東区東陽２－４－１４　三井ウッディビル１階,35.6684614,139.8182147,-
381311,情報・システム・ソフト,（株）エムゲームジャパン,東京都江東区東陽３－２２－６　東陽町ＡＸＩＳビル２階,35.6691009,139.812708,-
381312,情報・システム・ソフト,（株）ＭＧスタジオ,東京都江東区東陽３－２２－６　東陽町ＡＸＩＳビル２階,35.6691009,139.812708,-
200785,その他卸売,日本ヒルズ・コルゲート（株）,東京都江東区東陽３－７－１３　木場永代ビル,35.6696561,139.8094208,-
222157,その他卸売,ドレーゲル・セイフティージャパン（株）,東京都江東区東陽３－８－１,35.6708862,139.8094788,-
410121,電気機器,ブロンコスト・ジャパン（株）,東京都江東区東陽５－２７－５,35.6715095,139.8146464,-
208850,その他卸売,日本トレルボルグ　シーリング　ソリューションズ（株）,東京都江東区東陽７－１－１　イーストネットビル２階,35.674539,139.8164341,-
101012,電気機器卸売,ビー・アイ　テクノロジー　ジャパン（株）,東京都江東区東陽７－１－１０　カクマルビル４階,35.6755648,139.8163051,-
206213,精密機器卸売,コヒレント・ジャパン（株）,東京都江東区東陽７－２－１４　東陽ＭＫビル３階,35.675363,139.8178638,-
381619,情報・システム・ソフト,（株）地銀ＩＴソリューション,東京都江東区東陽７－２－１４　東陽ＭＫビル５階,35.675363,139.8178638,-
200625,化学卸売,バルスパーロック（株）,東京都江東区南砂２－３７－２,35.6710194,139.8255783,-
207023,精密機器卸売,オックスフォード・インストゥルメンツ（株）,東京都江東区富岡２－１１－６　長谷萬ビル,35.6704964,139.8013989,-
200852,機械卸売,ドレーゲル・メディカル　ジャパン（株）,東京都江東区富岡２－４－１０,35.6714134,139.8012345,-
220531,情報・システム・ソフト,日本アイ・ビー・エム　テクニカル・ソリューション（株）,東京都江東区豊洲５－６－５２　ＮＢＦ豊洲キャナルフロント日本ＩＢＭ豊洲事業所,35.650611,139.7992412,-
381534,情報・システム・ソフト,日本アイ・ビー・エム・ビズインテック（株）,東京都江東区豊洲５－６－５２　ＮＢＦ豊洲キャナルフロント日本ＩＢＭ豊洲事業所,35.650611,139.7992412,-
200242,貨物運送,キューネ・アンド・ナーゲル（株）,東京都江東区木場１－４－１２　名古路木場ビル,35.6686284,139.8032769,-
202500,鉄鋼・金属卸売,ケナメタルジャパン（株）,東京都江東区木場２－１５－１２　ＭＡビル４階,35.6722706,139.8031702,-
403490,情報・システム・ソフト,アールシステムズインターナショナル日本支社,東京都江東区木場２－２１－７－７０３,35.66901,139.8053071,-
381126,その他卸売,ザルトリウス・ステディム・ジャパン（株）,東京都江東区木場５－１１－１３,35.6699121,139.8082603,-
220165,その他卸売,メデラ（株）,東京都江東区木場５－１２－８　ＫＤＸ木場ビル３階,35.6705704,139.8088915,-
220058,旅行,（株）ジェイティービービジネストラベルソリューションズ,東京都江東区木場５－８－４０　東京パークサイドビル,35.6709997,139.8086207,-
220507,情報・システム・ソフト,地銀ソリューション・サービス（株）,東京都江東区木場５－８－４０　東京パークサイドビル５・６階,35.6709997,139.8086207,-
201004,他サービス,ＰＲＧ（株）,東京都江東区木場６－４－２　ＫＩビル２階,35.6664696,139.8055946,-
3060,食料品卸売,（株）ユニフルーティージャパン,東京都江東区門前仲町１－４－８　プラザ門前仲町３階,35.6722863,139.7944865,-
222116,電気機器卸売,ジョンソン・エレクトリック・ワールド・トレード・リミテッド（日本支店）,東京都江東区有明３－４－１０　ＴＦＴビル西館５階,35.630117,139.7896524,-
209916,電気機器,安川シーメンスオートメーション・ドライブ（株）,東京都江東区有明３－４－１０　東京ファッションタウンビル西館９階,35.630117,139.7896524,-
7040,化学,日本サイテック　インダストリーズ（株）,東京都江東区有明３－５－７,35.6325895,139.7882841,-
210067,生命保険,マスミューチュアル生命保険（株）,東京都江東区有明３－５－７,35.6325895,139.7882841,-
12060,貨物運送,ティエヌティエクスプレス（株）,東京都江東区有明３－５－７　ＴＯＣ有明イーストタワー６階,35.6325169,139.7882941,-
100420,化学,ダイセル・サイテック（株）,東京都江東区有明３－５－７　ＴＯＣ有明イーストタワー９階,35.6325169,139.7882941,-
1060,精密機器,ベックマン・コールター（株）,東京都江東区有明３－５－７　ＴＯＣ有明ウエストタワー,35.6321298,139.7881255,-
220468,その他卸売,ＫＴＭ　ＪＡＰＡＮ（株）（登記社名　カ・テ・エム・ジャパン（株））,東京都江東区有明３－５－７　ＴＯＣ有明ウエストタワー９階,35.6321298,139.7881255,-
220118,情報・システム・ソフト,ＮＥＵＳＯＦＴ　Ｊａｐａｎ（株）,東京都江東区有明３－６－１１　東京ファッションタウンビル東館７階,35.6308953,139.790628,-
222077,機械卸売,クリスティ・デジタル・システムズ（日本支社）,東京都江東区有明３－７－２６　有明フロンティアビルＡ棟２階,35.6314831,139.7918097,-
209229,貨物運送,プレミアワールドワイドムーバース（株）,東京都港区愛宕１－１－１０　ナカタマック虎ノ門ビル２階,35.6658619,139.7481529,虎ノ門・六本木
220821,食料品卸売,ブリティッシュ・アメリカン・タバコ・ジャパン合同会社,東京都港区愛宕２－５－１　愛宕ＭＯＲＩタワー２１階,35.6621409,139.7488929,虎ノ門・六本木
5560,化学,シェブロン　ジャパン（株）,東京都港区愛宕２－５－１　愛宕グリーンヒルズＭＯＲＩタワー１８階,35.6621409,139.7488929,虎ノ門・六本木
12170,非鉄金属,ヴァーレ・ジャパン（株）,東京都港区愛宕２－５－１　愛宕グリーンヒルズＭＯＲＩタワー２５階,35.6621409,139.7488929,虎ノ門・六本木
220542,医薬品,バイオジェン・アイデック・ジャパン（株）,東京都港区愛宕２－５－１　愛宕グリーンヒルズＭＯＲＩタワー２６階,35.6621409,139.7488929,虎ノ門・六本木
420035,証券,エービーエヌ・アムロ・クリアリング証券（株）,東京都港区愛宕２－５－１　愛宕グリーンヒルズＭＯＲＩタワー３９階,35.6621409,139.7488929,虎ノ門・六本木
360065,貸金・信販・カード,ユーロハイポ・ジャパン（株）,東京都港区愛宕２－５－１　愛宕グリーンヒルズＭＯＲＩタワー４０階,35.6621409,139.7488929,虎ノ門・六本木
990320,銀行,コメルツ銀行（東京支店）,東京都港区愛宕２－５－１　愛宕グリーンヒルズＭＯＲＩタワー４０階,35.6621409,139.7488929,虎ノ門・六本木
420005,情報・システム・ソフト,（株）ソフトニック,東京都港区愛宕２－５－１　愛宕グリーンヒルズＭＯＲＩタワー４１階,35.6621409,139.7488929,虎ノ門・六本木
200844,情報・システム・ソフト,ガートナー　ジャパン（株）,東京都港区愛宕２－５－１　愛宕グリーンヒルズＭＯＲＩタワー５階,35.6621409,139.7488929,虎ノ門・六本木
208396,コンサルティング,ハイドリック　アンド　ストラグルズ　ジャパン合同会社,東京都港区愛宕２－５－１　愛宕グリーンヒルズ森タワー３８階,35.6621409,139.7488929,虎ノ門・六本木
201131,機械卸売,ハネウェルジャパン（株）,東京都港区海岸１－１６－１　ニューピア竹芝サウスタワー２０階,35.6534029,139.7625892,-
209023,情報・システム・ソフト,オープンテキスト（株）,東京都港区海岸１－１６－１　ニューピア竹芝サウスタワー６階,35.6534029,139.7625892,-
2870,電気機器,日本エマソン（株）,東京都港区海岸１－１６－１　ニューピア竹芝サウスタワー７階,35.6534029,139.7625892,-
450,電気機器,アナログ・デバイセズ（株）,東京都港区海岸１－１６－１　ニューピア竹芝サウスタワービル１０階,35.6534029,139.7625892,-
403476,医薬品,（株）ＬＴＴバイオファーマ,東京都港区海岸１－２－２０　汐留ビル３階,35.6569087,139.7595124,-
210089,生命保険,ハートフォード生命保険（株）,東京都港区海岸１－２－２０　汐留ビルディング１５階,35.6568217,139.759378,-
222054,ホテル,ワールドホテルズＡＧ（日本支社）,東京都港区海岸１－２－２０　汐留ビルディング３階,35.6568217,139.759378,-
224466,医薬品,エチファーム（株）,東京都港区海岸１－２－３　汐留芝離宮ビル２１階,35.6572058,139.758637,-
410038,情報・システム・ソフト,インターソフト（株）,東京都港区海岸１－９－１１　マリンクスタワー８階,35.655113,139.7622282,-
208331,海運,インチケープ　シッピング　サービス（株）,東京都港区海岸２－１－１６　鈴与浜松町ビル,35.6509088,139.7588589,-
224221,その他卸売,ウォーレム　シッピング　リミテッド,東京都港区海岸２－１－１６　鈴与浜松町ビル,35.6509088,139.7588589,-
208764,情報・システム・ソフト,ダッソー・システムズ（株）,東京都港区海岸３－１８－１　ピアシティ芝浦ビル,35.6447287,139.756577,-
209724,情報・システム・ソフト,ソリッドワークス・ジャパン（株）,東京都港区海岸３－１８－１　ピアシティ芝浦ビル,35.6447287,139.756577,-
224075,建設,昭和環境システム（株）,東京都港区海岸３－２０－２０　ヨコソーレインボータワー,35.6400253,139.7565031,-
220546,機械,ヴェオリア・ウォーター・ソリューション＆テクノロジー（株）,東京都港区海岸３－２０－２０　ヨコソーレインボータワー１１階,35.6400253,139.7565031,-
224522,建設,ヴェオリア・ウォーター・ジャパン（株）,東京都港区海岸３－２０－２０　ヨコソーレインボータワー１１階,35.6400253,139.7565031,-
202962,精密機器卸売,日本キスラー（株）,東京都港区海岸３－２０－２０　ヨコソーレインボータワー１階,35.6400253,139.7565031,-
490,精密機器卸売,アプライド　マテリアルズ　ジャパン（株）,東京都港区海岸３－２０－２０　ヨコソーレインボータワー８階,35.6400253,139.7565031,-
2840,電気機器卸売,エレクトロラックス・ジャパン（株）,東京都港区海岸３－２－１２　安田芝浦第２ビル,35.6436557,139.7552653,-
202996,電気機器卸売,（株）マイタックジャパン,東京都港区海岸３－２－１２　安田芝浦第２ビル３階,35.6436557,139.7552653,-
204172,総合卸売,ヘテ　ジャパン（株）,東京都港区海岸３－２９－１,35.6419636,139.7597031,-
208696,機械卸売,ケーザー・コンプレッサー（株）,東京都港区海岸３－３１－１,35.6399098,139.7581973,-
203286,その他卸売,（株）クロス・オブ・ジャパン,東京都港区海岸３－３－１８　芝浦日新ビル本館５階,35.6409366,139.753808,-
420061,航空,南アフリカ航空（日本支社）,東京都港区元赤坂１－１－２　赤坂ライオンズビル６階,35.6783487,139.7337686,-
220731,他サービス,（株）エブリデイ・マック,東京都港区元赤坂１－３－９　荻島ビル８階,35.6769567,139.7341196,-
202059,食料品卸売,（株）エスエーシージャパン,東京都港区元赤坂１－５－７　ラ・ベリテ赤坂,35.6776833,139.7338085,-
101140,損害保険,アリアンツ火災海上保険（株）,東京都港区元赤坂１－６－６　安全ビル,35.6782343,139.7333495,-
381318,生命保険,アリアンツ生命保険（株）,東京都港区元赤坂１－６－６　安全ビル,35.6782343,139.7333495,-
100659,建設,フルーア・ダニエル・ジャパン（株）,東京都港区元赤坂１－７－１０－３０２,35.6780661,139.7326117,-
410311,コンサルティング,Ｋｅｐｎｅｒ－Ｔｒｅｇｏｅ　Ｊａｐａｎ，　ＬＬＣ．,東京都港区元赤坂１－７－１８　ニッセイ元赤坂ビル５階,35.6783027,139.7324944,-
220953,コンサルティング,（株）パラダイスインターナショナル,東京都港区虎ノ門１－１－２３　ウンピン虎ノ門ビル９階,35.6703706,139.750097,虎ノ門・六本木
103029,石油・燃料卸売,ＡＲＥＶＡ　ＪＡＰＡＮ（株）,東京都港区虎ノ門１－１６－４　アーバン虎ノ門ビル５階,35.6684419,139.7489944,虎ノ門・六本木
224545,化学,アレバ・エヌシー・ジャパン・プロジェクト（株）,東京都港区虎ノ門１－１６－４　アーバン虎ノ門ビル５階,35.6684419,139.7489944,虎ノ門・六本木
203065,化学卸売,オキシデンタル・ケミカル（株）,東京都港区虎ノ門１－１６－４　アーバン虎ノ門ビル７階,35.6684419,139.7489944,虎ノ門・六本木
222319,他小売,（株）新世界（東京事務所）,東京都港区虎ノ門１－１６－６　虎ノ門ラポート４階,35.6684365,139.7492939,虎ノ門・六本木
420178,海運,Ａ．Ｐ．モラー・マースクＡＳ,東京都港区虎ノ門１－１７－１　虎ノ門５森ビル,35.6679904,139.7500876,虎ノ門・六本木
210309,海運,ＳＴＸ日本（株）,東京都港区虎ノ門１－１９－５　虎ノ門１丁目森ビル５階,35.6676037,139.7503142,虎ノ門・六本木
201050,機械卸売,ファイク・ジャパン（株）,東京都港区虎ノ門１－１９－９,35.6673338,139.7501862,虎ノ門・六本木
403333,コンサルティング,ミュラー外国法事務弁護士事務所,東京都港区虎ノ門１－２－１８　虎ノ門興業ビル,35.6693163,139.7474601,虎ノ門・六本木
100274,投信・投資顧問,アバディーン投信投資顧問（株）,東京都港区虎ノ門１－２－３　虎ノ門清和ビル,35.6701857,139.7489572,虎ノ門・六本木
10840,金属製品,（株）ＣＳＩジャパン,東京都港区虎ノ門１－２－８,35.669523,139.7483939,虎ノ門・六本木
208642,損害保険,ウイリス　ジャパン　ホールディングス（株）,東京都港区虎ノ門１－２－８　虎ノ門琴平タワー１２階,35.6695311,139.7483983,虎ノ門・六本木
360048,証券,ブラウン・ブラザーズ・ハリマン証券（株）,東京都港区虎ノ門１－２－８　虎ノ門琴平タワー１５階,35.6695311,139.7483983,虎ノ門・六本木
360042,航空,アエロフロート・ロシア航空（日本支社）,東京都港区虎ノ門１－２－８　虎ノ門琴平タワー１６階,35.6695311,139.7483983,虎ノ門・六本木
403447,コンサルティング,アメリカン・アプレーザル・ジャパン（株）,東京都港区虎ノ門１－２－８　虎ノ門琴平タワー１６階,35.6695311,139.7483983,虎ノ門・六本木
220473,損害保険,コファス・ジャパン信用保険会社,東京都港区虎ノ門１－２－８　虎ノ門琴平タワー１７階,35.6695311,139.7483983,虎ノ門・六本木
380944,海運,グリーグ　スターシッピング　エイ・エス（日本支店）,東京都港区虎ノ門１－２－８　虎ノ門琴平タワー２２階,35.6695311,139.7483983,虎ノ門・六本木
220566,情報・システム・ソフト,マイクロス－フィデェリオ　ジャパン（株）,東京都港区虎ノ門１－２－８　虎ノ門琴平タワー６階,35.6695311,139.7483983,虎ノ門・六本木
222137,航空,中国東方航空公司（東京支店）,東京都港区虎ノ門１－２－８　虎ノ門琴平タワー７階,35.6695311,139.7483983,虎ノ門・六本木
224116,コンサルティング,エデルマン・ジャパン（株）,東京都港区虎ノ門１－２－８　虎ノ門琴平タワー７階,35.6695311,139.7483983,虎ノ門・六本木
209891,通信・放送,ＡＴ＆Ｔジャパン（株）,東京都港区虎ノ門２－１０－１　虎ノ門ツインビル６階,35.667481,139.7451647,虎ノ門・六本木
220662,情報・システム・ソフト,アカマイ・テクノロジーズ合同会社,東京都港区虎ノ門２－１０－１　虎ノ門ツインビルディング,35.667481,139.7451647,虎ノ門・六本木
13250,繊維・衣服卸売,ゼニア　ジャパン（株）,東京都港区虎ノ門２－１０－１　虎ノ門ツインビルディングＡＮＮＥＸ,35.667481,139.7451647,虎ノ門・六本木
209770,通信・放送,リーチ・ネットワークス（株）,東京都港区虎ノ門２－１０－１　新虎ノ門ツインビル東棟４階,35.667481,139.7451647,虎ノ門・六本木
221001,ホテル,ホテル新羅（東京支店）,東京都港区虎ノ門２－１０－４　ホテルオークラ本館５１１号,35.667087,139.745524,虎ノ門・六本木
990310,銀行,ウリィ銀行（東京支店）,東京都港区虎ノ門２－１－１　商船三井ビル１階,35.6698553,139.7468813,虎ノ門・六本木
200770,食料品卸売,日本メープルリーフ　フーズ（株）,東京都港区虎ノ門２－１３－１７　虎ノ門２丁目タワー１０階,35.6684084,139.7467615,虎ノ門・六本木
220018,他サービス,カタリナ　マーケティング　ジャパン（株）,東京都港区虎ノ門２－２－１　ＪＴビル１５階,35.6692513,139.7456437,虎ノ門・六本木
381394,他小売,アモーレパシフィックジャパン（株）,東京都港区虎ノ門２－２－１　商船三井ビル４階,35.669469,139.7458423,虎ノ門・六本木
403033,通信・放送,エフェ通信社,東京都港区虎ノ門２－２－５　共同通信会館２階,35.669154,139.7446856,虎ノ門・六本木
392681,医薬品,フェリング・ファーマ（株）,東京都港区虎ノ門２－３－１７　虎ノ門２丁目タワー１０階,35.6684084,139.7467615,虎ノ門・六本木
222135,銀行,中国建設銀行（東京支店）,東京都港区虎ノ門２－３－１７　虎ノ門２丁目タワー８階,35.6684084,139.7467615,虎ノ門・六本木
222136,航空,中国国際航空股フン有限公司（日本支社）,東京都港区虎ノ門２－５－２　エア・チャイナビル,35.6687673,139.748059,虎ノ門・六本木
220758,投資業等,ＫＴＢ　投資証券　東京事務所,東京都港区虎ノ門２－６－１０　ＮＨ虎ノ門ビル９階,35.6670879,139.7471807,虎ノ門・六本木
380991,建設,チャイナ・ボーチー・エンバイロメンタル・ソリューションズ・テクノロジー（ホールディング）カンパニー・リミテッド,東京都港区虎ノ門２－７－１６　ビュロー虎ノ門,35.6676955,139.747041,虎ノ門・六本木
220172,情報・システム・ソフト,ラド・ジャパン（株）,東京都港区虎ノ門２－７－１６　ビュロー虎ノ門１０階,35.6676955,139.747041,虎ノ門・六本木
222087,電気機器卸売,Ｏｒｃｋｉｔ－Ｃｏｒｒｉｇｅｎｔ（株）,東京都港区虎ノ門２－７－１６　ビュロー虎ノ門５階,35.6676955,139.747041,虎ノ門・六本木
222123,情報・システム・ソフト,エピコ・ソフトウェア・ジャパン（株）,東京都港区虎ノ門２－７－５　ビュレックス虎ノ門５０１号,35.6675599,139.747125,虎ノ門・六本木
202511,ホテル,コンコルドホテルインターナショナル（株）,東京都港区虎ノ門２－７－５　ビュレックス虎ノ門５階,35.6675599,139.747125,虎ノ門・六本木
360142,電力・ガス,韓国電力公社（東京事務所）,東京都港区虎ノ門２－８－１　虎の門電気ビルディング３階,35.6678345,139.7467615,虎ノ門・六本木
381439,化学卸売,ネキシラ（株）,東京都港区虎ノ門３－１１－１５　ＳＶＡＸ　ＴＴビル,35.6651055,139.7469262,虎ノ門・六本木
200253,総合卸売,（株）暁星ジャパン,東京都港区虎ノ門３－１１－１５　ＳＶＡＸ　ＴＴビル６階,35.6651136,139.7470421,虎ノ門・六本木
360037,ガラス・土石,オーウェンス　コーニング　ジャパン（株）,東京都港区虎ノ門３－１２－１　ニッセイ虎ノ門ビル４階,35.6645146,139.7468014,虎ノ門・六本木
380856,他サービス,イプソス（株）,東京都港区虎ノ門３－１８－１９　虎ノ門マリンビル,35.6631746,139.7463224,虎ノ門・六本木
202854,機械卸売,ドレッサー・ランド・ジャパン（株）,東京都港区虎ノ門３－２－２　虎ノ門３０森ビル３階,35.6669875,139.746444,虎ノ門・六本木
204370,化学卸売,日本ソルベイ（株）,東京都港区虎ノ門３－２－２　虎ノ門３０森ビル４階,35.6669875,139.746444,虎ノ門・六本木
208516,化学卸売,ソルベイスペシャルティポリマーズジャパン（株）,東京都港区虎ノ門３－２－２　虎ノ門３０森ビル４階,35.6669875,139.746444,虎ノ門・六本木
202874,食料品卸売,フォーエバーリビングプロダクツ　ジャパン（有）,東京都港区虎ノ門３－２２－１４　日本ＦＬＰ虎ノ門ビル,35.6617231,139.7475662,虎ノ門・六本木
200015,コンサルティング,アーサー・Ｄ・リトル（ジャパン）（株）（登記社名　アーサー・ディ・リトル・ジャパン（株））,東京都港区虎ノ門３－５－１　虎ノ門３７森ビル１３階,35.6664945,139.7462825,虎ノ門・六本木
220251,通信・放送,（株）ＫＴジャパン,東京都港区虎ノ門３－５－１　虎ノ門３７森ビル１３階,35.6664945,139.7462825,虎ノ門・六本木
220021,航空,カンタス航空　日本支社,東京都港区虎ノ門３－５－１　虎ノ門３７森ビル９階,35.6664945,139.7462825,虎ノ門・六本木
220143,航空,ブリティッシュ・エアウェイズ　ピーエルシー,東京都港区虎ノ門３－５－１　虎ノ門３７森ビル９階,35.6664945,139.7462825,虎ノ門・六本木
991150,銀行,交通銀行（東京支店）,東京都港区虎ノ門３－５－１　虎ノ門３７森ビル９階,35.6664945,139.7462825,虎ノ門・六本木
403353,食料品卸売,アイスランディックジャパン（株）,東京都港区虎ノ門３－７－１０　ランディック虎ノ門ビル６階,35.6646711,139.7462653,虎ノ門・六本木
201008,その他卸売,パイオニア　ハイブレッド　ジャパン（株）,東京都港区虎ノ門３－７－１０　ランディック虎ノ門ビル７階,35.6646711,139.7462653,虎ノ門・六本木
220271,その他卸売,パイオニア　エコサイエンス（株）,東京都港区虎ノ門３－７－１０　ランディック虎ノ門ビル７階,35.6646711,139.7462653,虎ノ門・六本木
209074,化学,オリカジャパン（株）,東京都港区虎ノ門３－７－１１　虎ノ門三須ビル７階,35.6645475,139.7462254,虎ノ門・六本木
360081,化学,ＳＫ　ケミカルズ,東京都港区虎ノ門３－７－５　虎ノ門ルーツ２１ビル３階,35.6652693,139.7466026,虎ノ門・六本木
360152,電気機器卸売,ミップス・テクノロジーズ（日本支社）,東京都港区虎ノ門３－７－８　ランディック第２虎ノ門ビル３階,35.6649223,139.7463423,虎ノ門・六本木
381120,コンサルティング,アシュトン・コンサルティング・リミテッド,東京都港区虎ノ門３－７－８　ランディック第２虎ノ門ビル８階,35.6649223,139.7463423,虎ノ門・六本木
360098,コンサルティング,ディシジョン・リソーシズ・インターナショナル・インク（東京オフィス）,東京都港区虎ノ門４－１－１３　葺手ビル４階,35.6648055,139.744486,虎ノ門・六本木
991130,銀行,フィリピン・ナショナル・バンク（東京支店）,東京都港区虎ノ門４－１－１３　葺手ビル５階,35.6648055,139.744486,虎ノ門・六本木
200604,総合卸売,ティッセンクルップ・スティール＆テクノロジーズ・ジャパン（株）,東京都港区虎ノ門４－１－１３　葺手ビル７階,35.6648055,139.744486,虎ノ門・六本木
410066,コンサルティング,ジョーンズ・デイ法律事務所（東京事務所）,東京都港区虎ノ門４－１－１７　神谷町プライムプレイス,35.6650759,139.7440868,虎ノ門・六本木
220884,精密機器卸売,ジンマー（株）,東京都港区虎ノ門４－１－１７　神谷町プライムプレイス７階,35.6650759,139.7440868,虎ノ門・六本木
392788,投資業等,（株）リバーサイド・パートナーズ,東京都港区虎ノ門４－１－１７　神谷町プライムプレイス９階,35.6650759,139.7440868,虎ノ門・六本木
410385,投信・投資顧問,ジャパンインベスト（株）,東京都港区虎ノ門４－１－２１　葺手第２ビル７階,35.6654653,139.7434481,虎ノ門・六本木
100001,情報・システム・ソフト,アイ・エム・エス・ジャパン（株）,東京都港区虎ノ門４－１－２８　虎ノ門タワーズオフィス,35.6660437,139.7437276,虎ノ門・六本木
209466,投信・投資顧問,ピムコジャパンリミテッド,東京都港区虎ノ門４－１－２８　虎ノ門タワーズオフィス１８階,35.6660437,139.7437276,虎ノ門・六本木
208677,証券,ＲＢＣ　キャピタル　マーケッツ証券会社（東京支店）,東京都港区虎ノ門４－１－２８　虎ノ門タワーズオフィス８階,35.6660437,139.7437276,虎ノ門・六本木
990670,銀行,カナダロイヤル銀行（東京支店）,東京都港区虎ノ門４－１－２８　虎ノ門タワーズオフィス８階,35.6660437,139.7437276,虎ノ門・六本木
410166,コンサルティング,（株）シグマクシス,東京都港区虎ノ門４－１－２８　虎ノ門タワーズオフィス９階,35.6660437,139.7437276,虎ノ門・六本木
210004,情報・システム・ソフト,ネットアップ（株）,東京都港区虎ノ門４－１－８　虎ノ門４丁目ＭＴビル,35.6643802,139.7453204,虎ノ門・六本木
222201,コンサルティング,（株）フューチャーマネジメントアンドイノベーションコンサルティング,東京都港区虎ノ門４－２－１２　虎ノ門４丁目ＭＴビル２号館９階,35.6641737,139.7456066,虎ノ門・六本木
420126,非鉄金属,昭和電線ホールディングス（株）,東京都港区虎ノ門４－３－１　城山トラストタワー,35.6646397,139.7430889,虎ノ門・六本木
208495,電気機器卸売,（株）ロジクール,東京都港区虎ノ門４－３－１　城山トラストタワー１４階,35.6646397,139.7430889,虎ノ門・六本木
100312,投信・投資顧問,フィデリティ投信（株）,東京都港区虎ノ門４－３－１　城山トラストタワー２０階,35.6646397,139.7430889,虎ノ門・六本木
209549,証券,フィデリティ証券（株）,東京都港区虎ノ門４－３－１　城山トラストタワー２０階,35.6646397,139.7430889,虎ノ門・六本木
209362,電気機器卸売,ＳＫ　ｈｙｎｉｘ　Ｊａｐａｎ（株）,東京都港区虎ノ門４－３－１　城山トラストタワー２３階,35.6646397,139.7430889,虎ノ門・六本木
403266,コンサルティング,トランスファーカナダパシフィックマネジメント（株）,東京都港区虎ノ門４－３－１　城山トラストタワー２７階,35.6646397,139.7430889,虎ノ門・六本木
207054,コンサルティング,（株）ヘッドストロング・ジャパン,東京都港区虎ノ門４－３－１　城山トラストタワー３０階,35.6646397,139.7430889,虎ノ門・六本木
224223,損害保険,アトラディウス信用保険会社（日本支店）,東京都港区虎ノ門４－３－１　城山トラストタワー３０階,35.6646397,139.7430889,虎ノ門・六本木
403453,電気機器卸売,ベタープレイス・ジャパン（株）,東京都港区虎ノ門４－３－１　城山トラストタワー３１階,35.6646397,139.7430889,虎ノ門・六本木
222348,海運,ユーコー・カーキャリアーズ（株）（東京支店）,東京都港区虎ノ門４－３－１　城山トラストタワー３３階,35.6646397,139.7430889,虎ノ門・六本木
392777,情報・システム・ソフト,ＯＰＴＩＳ　Ｊａｐａｎ（株）,東京都港区虎ノ門４－３－１　城山トラストタワー３３階,35.6646397,139.7430889,虎ノ門・六本木
410019,コンサルティング,フィネガン・ヘンダーソン・ファラボー・ギャレット＆ダナー外国法事務弁護士事務所,東京都港区虎ノ門４－３－１　城山トラストタワー３３階,35.6646397,139.7430889,虎ノ門・六本木
222057,情報・システム・ソフト,エトラリ（株）,東京都港区虎ノ門４－３－１　城山トラストタワー３４階,35.6646397,139.7430889,虎ノ門・六本木
360033,他サービス,ラムバス（株）,東京都港区虎ノ門４－３－１　城山トラストタワー３４階,35.6646397,139.7430889,虎ノ門・六本木
392494,証券,あおぞら証券（株）,東京都港区虎ノ門４－３－１　城山トラストタワー３６階,35.6646397,139.7430889,虎ノ門・六本木
403200,銀行,（株）ＳＢＪ銀行,東京都港区虎ノ門４－３－１　城山トラストタワー９階,35.6646397,139.7430889,虎ノ門・六本木
392623,自動車販売,ジャガー・ランドローバー・ジャパン（株）,東京都港区虎ノ門４－３－１３　神谷町セントラルプレイス,35.664053,139.744397,虎ノ門・六本木
210084,通信・放送,パックネットサービス・ジャパン（株）,東京都港区虎ノ門４－３－１３　神谷町セントラルプレイス１階,35.663789,139.7441094,虎ノ門・六本木
403439,倉庫・物流関連,ユニパート（株）,東京都港区虎ノ門４－３－１３　神谷町セントラルプレイス６階,35.663789,139.7441094,虎ノ門・六本木
3240,輸送用機器卸売,フォード・ジャパン・リミテッド,東京都港区虎ノ門４－３－１３　神谷町セントラルプレイス８階,35.663789,139.7441094,虎ノ門・六本木
205067,損害保険,アメリカン・ホーム・アシュアランス・カンパニー（日本支店）,東京都港区虎ノ門４－３－２０　神谷町ＭＴビル,35.6634944,139.744526,虎ノ門・六本木
220004,損害保険,富士火災海上保険（株）,東京都港区虎ノ門４－３－２０　神谷町ＭＴビル,35.6634944,139.744526,虎ノ門・六本木
229134,生命保険,富士生命保険（株）,東京都港区虎ノ門４－３－２０　神谷町ＭＴビル,35.6634944,139.744526,虎ノ門・六本木
410386,コンサルティング,チャーティス・ビジネス・パートナーズ（株）,東京都港区虎ノ門４－３－２０　神谷町ＭＴビル,35.6634944,139.744526,虎ノ門・六本木
202881,石油石炭,フックスジャパン（株）,東京都港区虎ノ門４－３－２０　神谷町ＭＴビル１３階,35.6634944,139.744526,虎ノ門・六本木
403470,他サービス,ＤＨＲ　Ｉｎｔｅｒｎａｔｉｏｎａｌ　Ｊａｐａｎ（株）,東京都港区虎ノ門４－３－２０　神谷町ＭＴビル１６階,35.6634944,139.744526,虎ノ門・六本木
224126,人材派遣・業務請負,マイケル・ペイジ・インターナショナル・ジャパン（株）,東京都港区虎ノ門４－３－２０　神谷町ＭＴビルディング１５階,35.6634944,139.744526,虎ノ門・六本木
403215,食料品卸売,Ａｓｓｏｃｉａｔｅｄ　Ｂｒｉｔｉｓｈ　Ｆｏｏｄｓ　Ｊａｐａｎ（株）,東京都港区虎ノ門５－１１－１　オランダヒルズ森タワーＲｏＰ６０１,35.6612915,139.7440469,虎ノ門・六本木
220166,医薬品,マイラン製薬（株）,東京都港区虎ノ門５－１１－２　オランダヒルズ森タワー１５階,35.6612915,139.7440469,虎ノ門・六本木
381286,映像・音楽,ソート　エクイティ　モーション（日本支社）,東京都港区虎ノ門５－１１－２　オランダヒルズ森タワー１７階,35.6612915,139.7440469,虎ノ門・六本木
410186,人材派遣・業務請負,モーガン　マッキンリー（株）（登記社名　Ｍｏｒｇａｎ　ＭｃＫｉｎｌｅｙ（株））,東京都港区虎ノ門５－１１－２　オランダヒルズ森タワー１７階,35.6612915,139.7440469,虎ノ門・六本木
204595,情報・システム・ソフト,日本ラディシス（株）,東京都港区虎ノ門５－１１－２　オランダヒルズ森タワー１９階,35.6612915,139.7440469,虎ノ門・六本木
990170,銀行,ノヴァ・スコシア銀行（東京支店）,東京都港区虎ノ門５－１２－１　虎ノ門ワイコービル６階,35.6628102,139.7453244,虎ノ門・六本木
990321,銀行,オーストラリア・コモンウェルス銀行　東京支店,東京都港区虎ノ門５－１２－１　虎ノ門ワイコービル８階,35.6628102,139.7453244,虎ノ門・六本木
224219,情報・システム・ソフト,チームスタジオ　ジャパン（株）,東京都港区虎ノ門５－１２－１３　大手町建物神谷町ビル２階,35.6626446,139.7452246,虎ノ門・六本木
224202,電気機器卸売,アイピーシー・インフォメーション・システムズ・ジャパン（株）,東京都港区虎ノ門５－１２－１３　大手町建物神谷町ビル５階,35.6626446,139.7452246,虎ノ門・六本木
208483,精密機器,フレゼニウス　メディカル　ケア　ジャパン（株）,東京都港区虎ノ門５－１３－１　虎ノ門４０ＭＴビル３階,35.6633809,139.7457635,虎ノ門・六本木
205386,パルプ・紙,キャンフォー・パルプ・ジャパン・コーポレーション,東京都港区虎ノ門５－１３－１　虎ノ門４０ＭＴビル５階,35.6633809,139.7457635,虎ノ門・六本木
202864,ホテル,（株）パン　パシフィック　ホテルズ　＆　リゾーツ　ジャパン,東京都港区虎ノ門５－１３－１　虎ノ門４０ＭＴビル７階,35.6633809,139.7457635,虎ノ門・六本木
360135,情報・システム・ソフト,ＯＡＧ／ＵＢＭ　Ａｖｉａｔｉｏｎ　Ｗｏｒｌｄｗｉｄｅ　Ｌｔｄ．（日本支社）,東京都港区虎ノ門５－１３－１　虎ノ門４０ＭＴビル９階,35.6633809,139.7457635,虎ノ門・六本木
222035,他製造業,インターフェイス　オーバーシーズ　ホールディングズ　インク,東京都港区虎ノ門５－１－４　東都ビル６階,35.6638588,139.745524,虎ノ門・六本木
402963,医薬品,ルンドベック・ジャパン（株）,東京都港区虎ノ門５－１－４　東都ビル７階,35.6638588,139.745524,虎ノ門・六本木
392533,医薬品,テバファーマスーティカル（株）,東京都港区虎ノ門５－１－５　虎ノ門４５ＭＴビル７階,35.6636711,139.7453244,虎ノ門・六本木
205072,情報・システム・ソフト,（株）ジェイ・ディー・パワー　アジア・パシフィック,東京都港区虎ノ門５－１－５　虎ノ門４５ＭＴビル８階,35.6636711,139.7453244,虎ノ門・六本木
104432,ホテル,（株）アゴーラ・ホスピタリティー・グループ,東京都港区虎ノ門５－２－６　虎ノ門第２ワイコービル,35.6629006,139.7445659,虎ノ門・六本木
200065,機械卸売,イースト・アジアチック・カンパニー・ジャパン（株）,東京都港区虎ノ門５－２－６　虎ノ門第２ワイコービル６階,35.6629006,139.7445659,虎ノ門・六本木
220496,航空,スリランカ航空（東京支店）,東京都港区虎ノ門５－２－６　虎ノ門第２ワイコービル８階,35.6629006,139.7445659,虎ノ門・六本木
220978,他サービス,（有）ラ・マンガ・コーポレーション,東京都港区虎ノ門５－３－２　神谷町アネックス５階,35.6630777,139.7444262,虎ノ門・六本木
209672,他製造業,サンディスク（株）,東京都港区港南１－６－３１　品川東急ビル３階,35.6301661,139.7456038,-
206085,その他卸売,ロイヤルカナンジャポン合同会社,東京都港区港南１－６－３１　品川東急ビル４階,35.6301661,139.7456038,-
200568,非鉄金属,大同スペシャルメタル（株）,東京都港区港南１－６－３５　大同品川ビル,35.6307033,139.7455229,-
5060,化学,日本ゴア（株）,東京都港区港南１－８－１５　Ｗビル１４階,35.6303771,139.7441833,-
410299,広告,ベンチマーク・ホスピタリティ・インターナショナル・オブ・ジャパン・エルエルシー,東京都港区港南１－９－３６　アレア品川,35.6300683,139.7413325,-
280,機械,アルファ・ラバル（株）,東京都港区港南２－１２－２３,35.624954,139.745425,-
222186,コンサルティング,ピーティーエス・コンサルティング・ジャパン（株）,東京都港区港南２－１２－２３　明産高浜ビル６階,35.6249865,139.745484,-
207172,電気機器卸売,アンペックス・ジャパン（株）,東京都港区港南２－１２－２７　イケダヤ品川ビル５階,35.6254728,139.7452524,-
3960,食料品,グリフィス・ラボラトリーズ（株）,東京都港区港南２－１３－３１　ＮＳＳビル,35.6273505,139.7452046,-
9610,その他卸売,パンドウイットコーポレーション（日本支社）,東京都港区港南２－１３－３１　品川ＮＳＳビル,35.6273505,139.7452046,-
9820,他小売,ピーロート・ジャパン（株）,東京都港区港南２－１３－３１　品川ＮＳＳビル５階,35.6273505,139.7452046,-
3980,化学,積水フーラー（株）,東京都港区港南２－１３－３４　ＮＳＳ－２ビル,35.6277016,139.7453643,-
104424,精密機器卸売,日本エフイー・アイ（株）,東京都港区港南２－１３－３４　ＮＳＳ－２ビル４階,35.6277016,139.7453643,-
101042,輸送用機器卸売,フィアット　グループ　オートモービルズ　ジャパン（株）,東京都港区港南２－１３－３４　品川ＮＳＳ２ビル１１階,35.6277016,139.7453643,-
202794,その他卸売,ベン・ライン・エージェンシーズ・ジャパン（株）,東京都港区港南２－１３－４０　品川ＴＳビル４階,35.6287359,139.7453001,-
204465,電気機器,エス・ティー・マイクロエレクトロニクス（株）,東京都港区港南２－１５－１　品川インターシティＡ棟,35.627518,139.7420043,-
207015,電気機器卸売,エシェロン・ジャパン（株）,東京都港区港南２－１５－１　品川インターシティＡ棟２８階,35.627518,139.7420043,-
420032,情報・システム・ソフト,レッドプレーリー・ジャパン（株）,東京都港区港南２－１５－１　品川インターシティＡ棟２８階,35.627518,139.7420043,-
420114,電気機器卸売,エシェロン・アジアパシフィック・リミテッド（日本支社）,東京都港区港南２－１５－１　品川インターシティＡ棟２８階,35.627518,139.7420043,-
11090,化学,日本シーカ（株）,東京都港区港南２－１５－２　品川インターシティＢ棟１０階,35.6268112,139.7419271,-
205387,精密機器卸売,（株）ＴＦＦ,東京都港区港南２－１５－２　品川インターシティＢ棟６階,35.6268112,139.7419271,-
381307,機械卸売,ダナハーモーションジャパン（株）,東京都港区港南２－１５－２　品川インターシティＢ棟９階,35.6268112,139.7419271,-
200810,輸送用機器卸売,アリソンジャパン（株）,東京都港区港南２－１６－１　品川イーストワンタワー３階,35.627763,139.7407736,-
350018,他製造業,（株）テクノフォルム　バウテック　ジャパン,東京都港区港南２－１６－１　品川イーストワンタワー４階,35.627763,139.7407736,-
222248,コンサルティング,リソース・グローバル・プロフェッショナル・ジャパン（株）,東京都港区港南２－１６－１　品川イーストワンタワー５階,35.627763,139.7407736,-
208895,その他卸売,レンゴー・リバーウッド・パッケージング（株）,東京都港区港南２－１６－１　品川イーストワンタワー９階,35.627763,139.7407736,-
203295,ゴム製品,ジェイエスアール　クレイトン　エラストマー（株）,東京都港区港南２－１６－２,35.6271437,139.7405144,-
100179,食料品卸売,フォンテラジャパン（株）,東京都港区港南２－１６－２　太陽生命品川ビル２０階,35.6271646,139.7405341,-
202994,情報・システム・ソフト,日本マイクロソフト（株）,東京都港区港南２－１６－３　品川グランドセントラルタワー,35.6266147,139.7407736,-
5630,食料品,日本ケロッグ合同会社,東京都港区港南２－１６－４　品川グランドセントラルタワー,35.6266147,139.7407736,-
420077,他サービス,日本レロイ（株）,東京都港区港南２－１６－４　品川グランドセントラルタワー５階,35.6266147,139.7407736,-
100216,ガラス・土石卸売,スワロフスキー・ジャパン（株）,東京都港区港南２－１６－４　品川グランドセントラルタワー６階,35.6266147,139.7407736,-
220729,他サービス,（株）サンミナ－ＳＣＩシステムズ・ジャパン,東京都港区港南２－１６－４　品川グランドセントラルタワー６階,35.6266147,139.7407736,-
202726,精密機器卸売,ノーベル・バイオケア・ジャパン（株）,東京都港区港南２－１６－４　品川グランドセントラルタワー８階,35.6266147,139.7407736,-
208821,石油・燃料卸売,日本実華（株）,東京都港区港南２－１６－４　品川グランドセントラルタワー９階,35.6266147,139.7407736,-
9880,化学,ポリプラスチックス（株）,東京都港区港南２－１８－１　ＪＲ品川イーストビル,35.6289113,139.7407736,-
7715,電気機器,ＬＳＩロジック（株）,東京都港区港南４－１－８,35.6305391,139.7467024,-
403013,その他卸売,アルファ・モス・ジャパン（株）,東京都港区高輪１－５－４　常和高輪ビル８階,35.6433558,139.7362632,-
100018,海運,エバーグリーン・シッピング・エージェンシー・ジャパン（株）,東京都港区高輪２－１５－１３,35.637225,139.7386756,-
210068,航空,エバー航空（日本支社）,東京都港区高輪２－１５－１３　エバーグリーンビル２階,35.6372446,139.7387379,-
420088,機械卸売,（株）ツバキフレックスリンク,東京都港区高輪２－１５－１６,35.6368189,139.7388232,-
204170,旅行,ガリバーズ・トラベル・エージェンシー（株）,東京都港区高輪２－１６－４１　ガリバーズハウス,35.6380638,139.7382095,-
360201,情報・システム・ソフト,ＳＣＡＬＡ（株）,東京都港区高輪２－１７－１２　ニューシティレジデンス高輪２０８,35.6391049,139.7396108,-
200342,情報・システム・ソフト,（株）アイ・ディ・ジー・ジャパン,東京都港区高輪２－１８－１０　日石高輪ビル８階,35.6399233,139.7402561,-
205087,情報・システム・ソフト,（株）菱友システムビジネス,東京都港区高輪２－１９－１３　高輪センタービル２階,35.6392251,139.7408135,-
209138,精密機器卸売,（株）ホリスター,東京都港区高輪２－２１－３８　大野高輪ビル２階,35.6358657,139.7390572,-
204371,輸送用機器卸売,ニッポン・テック・インコーポレイテッド,東京都港区高輪２－２１－４３　ＹＣＣ高輪ビル５階,35.6363863,139.7392368,-
392661,精密機器卸売,ゲティンゲ・ジャパン（株）,東京都港区高輪３－１１－３　東信高輪ビル,35.6306535,139.7373109,-
209424,精密機器,Ｋｏｆａｘ　Ｊａｐａｎ（株）,東京都港区高輪３－１９－２６　ＳＯＣ高輪ビル９階,35.6325803,139.7375184,-
392482,他サービス,エヌピーディー・ジャパン（株）,東京都港区高輪３－２３－１７　品川センタービル１３階,35.6306361,139.7370215,-
7350,化学,ナルコ　ジャパン（株）,東京都港区高輪３－２３－１７　品川センタービルディング１０階,35.6306361,139.7370215,-
209780,電気機器卸売,ラリタン・ジャパン（株）,東京都港区高輪３－２３－１７　品川センタービルディング１４階,35.6306361,139.7370215,-
222167,電気機器卸売,日本ナンヤ・テクノロジー（株）,東京都港区高輪３－２４－１８,35.6324327,139.7380017,-
380004,電気機器卸売,ジェムアルト（株）,東京都港区高輪３－２５－２３　京急第２ビル６階,35.6307887,139.7378616,-
210226,コンサルティング,ピーイーアジア（株）,東京都港区高輪４－２３－６　ハイホーム高輪３０４,35.626026,139.7375604,-
209568,コンサルティング,ブランドイメージ（株）,東京都港区三田１－１１－１９,35.6535112,139.7393721,-
3760,その他卸売,（株）ロイヤル・コペンハーゲンジャパン,東京都港区三田１－４－２８　三田国際ビル,35.6525477,139.744434,-
209122,化学卸売,ビクトレックスジャパン（株）,東京都港区三田１－４－２８　三田国際ビル　アネックス,35.6535025,139.7447899,-
208711,他サービス,ウェーバー・シャンドウィック・ワールドワイド（株）,東京都港区三田１－４－２８　三田国際ビル１３階,35.6525477,139.744434,-
210205,コンサルティング,ゴリンハリス・インターナショナル（株）,東京都港区三田１－４－２８　三田国際ビル１３階,35.6525477,139.744434,-
222017,輸送用機器卸売,ピアッジオグループジャパン（株）（登記社名　Ｐｉａｇｇｉｏ　Ｇｒｏｕｐ　Ｊａｐａｎ（株））,東京都港区三田１－４－２８　三田国際ビル２２１１区,35.6525477,139.744434,-
220095,他製造業,日本インテグリス（株）,東京都港区三田１－４－２８　三田国際ビルヂング,35.6525477,139.744434,-
360139,機械卸売,斗山インフラコアジャパン（株）,東京都港区三田１－４－２８　三田国際ビルヂング２４階２４１２号,35.6526236,139.7443802,-
381554,自動車販売,日産自動車販売（株）,東京都港区三田２－１７－２０,35.6483671,139.7403944,-
12840,化学,ユニオン昭和（株）,東京都港区三田２－１７－２０　Ｐ’ｓ三田ビル,35.6483671,139.7403944,-
210114,電気機器卸売,レモジャパン（株）,東京都港区三田２－７－２２,35.6513864,139.743987,-
100060,電気機器卸売,インターシル（株）,東京都港区三田３－１１－３６　三田日東ダイビル６階,35.6419221,139.7421707,-
360126,精密機器卸売,ノバ・バイオメディカル（株）,東京都港区三田３－１３－１６　三田４３ＭＴビル７階,35.6436741,139.7434082,-
201312,化学,ヴェ・マン・フィス香料（株）,東京都港区三田３－１－４　Ｎｅｔ．１三田ビル４階,35.6477221,139.7433483,-
203217,ガラス・土石,ベスビウスジャパン（株）,東京都港区三田３－２－２１　ローランドミューズ１階,35.6468334,139.7422506,-
204634,電気機器卸売,シーラス・ロジック（株）,東京都港区三田３－２－６　Ｇスクエア三田,35.6474881,139.7428094,-
220915,石油・燃料卸売,リーフエナジー（株）,東京都港区三田３－４－１０,35.6469419,139.7438555,-
7930,総合卸売,ＤＫＳＨジャパン（株）,東京都港区三田３－４－１９　ＤＫＳＨ三田ビルディング,35.6464189,139.7440704,-
202620,海運,ホーグオートライナーズ（株）,東京都港区三田３－５－２７　住友不動産三田ツインビル西館１５階,35.6440283,139.7424264,-
410043,精密機器,アボットバスキュラージャパン（株）,東京都港区三田３－５－２７　住友不動産三田ツインビル西館４階,35.6440283,139.7424264,-
225030,電気機器,エーティーエムアイ・ジャパン（株）,東京都港区三田３－７－１８　ＴＨＥ　ＩＴＯＹＡＭＡ　ＴＯＷＥＲ３階,35.6426827,139.7416518,-
100234,総合卸売,シュリロ　トレーディング　カンパニー　リミテッド,東京都港区三田３－７－１８　ＴＨＥ　ＩＴＯＹＡＭＡ　ＴＯＷＥＲ８階,35.6426827,139.7416518,-
403069,情報・システム・ソフト,日本アールソフトデザイングループ（株）,東京都港区芝１－９－６　マツラビル２階,35.651231,139.7550434,-
224484,食料品,ラクタリス・ジャポン,東京都港区芝２－１０－１　芝メディックビル４階,35.6520805,139.7518916,-
208433,情報・システム・ソフト,ＩＦＳジャパン（株）,東京都港区芝２－１３－４　住友不動産芝ビル４号館,35.651307,139.7535146,-
222042,機械卸売,ＧＥＡ　ウエストファリアセパレータージャパン（株）,東京都港区芝２－１７－１１　パーク芝ビル３階,35.651271,139.7514537,-
380846,情報・システム・ソフト,ヴォコレクト　ジャパン（株）,東京都港区芝２－２－１５　芝２丁目ビル８階,35.6530453,139.753269,-
3140,化学,センシエント・テクノロジーズ・ジャパン（株）,東京都港区芝２－２９－１２　トーホー東京芝ビル,35.6494751,139.7526713,-
102002,電気機器,エルコライティング（株）,東京都港区芝２－５－１０　芝公園ＮＤビルディング,35.6527925,139.752191,-
1150,医薬品,ロシュ・ダイアグノスティックス（株）,東京都港区芝２－６－１,35.6527211,139.750448,-
222280,医薬品卸売,ロシュ　ファーマ（ジャパン）,東京都港区芝２－６－１,35.6527211,139.750448,-
403419,他小売,ラオックス（株）,東京都港区芝２－７－１７　住友芝公園ビル,35.6522732,139.7499184,-
208900,繊維・衣服卸売,ロロ・ピアーナ　ジャパン（株）,東京都港区芝３－１－１４　日本生命赤羽橋ビル４階,35.6541415,139.7455622,-
222251,貨物運送,レシャコジャパン（株）,東京都港区芝３－１－１５　芝ボートビル９階,35.6543885,139.745524,-
381128,ホテル,（株）ミドルウッド,東京都港区芝３－１２－１８　サンコート芝公園Ｂ１,35.6526753,139.7460842,-
209697,他サービス,（株）シュタール　ジャパン,東京都港区芝３－１４－１３,35.653155,139.7456663,-
403306,化学卸売,オクメティック（株）,東京都港区芝３－１６－１２　サンライズ三田８階,35.6523535,139.7453475,-
100409,総合卸売,日欧商事（株）,東京都港区芝３－２－１８　ＮＢＦ芝公園ビル４階,35.6537119,139.7461627,-
403473,情報・システム・ソフト,エイラシステム（株）,東京都港区芝３－２４－１　駿河ビル,35.6515357,139.7475799,-
200986,化学,シムライズ（株）,東京都港区芝３－３２－３,35.6509457,139.7479549,-
222352,海運,（株）韓進海運（日本支店）,東京都港区芝３－４－１５　東京ＫＡＬビル４階,35.6527667,139.7487588,-
220997,航空,大韓航空（日本地域本部）,東京都港区芝３－４－１５　東京ＫＡＬビル６階,35.6527667,139.7487588,-
220990,コンサルティング,コーンズ・ピー・アンド・アイ（株）,東京都港区芝３－４３－１６,35.6506584,139.7451744,-
1940,総合卸売,コーンズ・アンド・カンパニー・リミテッド,東京都港区芝３－５－１　コーンズハウス,35.6523291,139.7485902,-
222146,機械卸売,テクノジム・ジャパン（株）,東京都港区芝３－５－５　芝公園ビル３階,35.6523134,139.7491169,-
102030,輸送用機器卸売,ピレリジャパン（株）,東京都港区芝３－５－５　芝公園ビル７階,35.6523134,139.7491169,-
410245,海運,ＬＩＳＣＲ　ＪＡＰＡＮ（株）,東京都港区芝３－６－９　芝公園プラザビル４階,35.6520187,139.7492766,-
392551,輸送用機器卸売,アグスタウェストランド（日本支社）,東京都港区芝３－６－９　芝公園プラザビル８階,35.6520187,139.7492766,-
207165,総合卸売,ハンファ・ジャパン（株）,東京都港区芝４－１０－１　ハンファビル９階,35.6482509,139.7515123,-
220958,化学卸売,ハンファケミカル（東京事務所）,東京都港区芝４－１０－１　ハンファビル９階,35.6482509,139.7515123,-
220998,ホテル,プラザホテル（東京事務所）,東京都港区芝４－１０－１　ハンファビル９階,35.6482509,139.7515123,-
381178,電気機器卸売,（株）ネクスコム・ジャパン,東京都港区芝４－１１－５　田町ハラビル９階,35.6481648,139.7512528,-
200197,新聞・出版,オックスフォード大学出版局（株）,東京都港区芝４－１７－５　田町プレイス３階,35.6479304,139.751315,-
204610,輸送用機器卸売,ハーレーダビッドソンジャパン（株）,東京都港区芝４－２－３　ＮＯＦ芝ビル,35.6496486,139.7504344,-
392455,その他卸売,イントラロックス　エルエルシー,東京都港区芝４－４－１０　サンライズ長井ビル３階,35.6483542,139.7499353,-
222181,貨物運送,パナルピナ・ワールド・トランスポート・ジャパン（株）,東京都港区芝５－１３－１５　芝三田森ビル８階,35.6492356,139.7450649,-
104133,鉄鋼・金属卸売,スウェーデンスティール（株）,東京都港区芝５－２６－２０　建築会館５階,35.6475533,139.7462825,-
220301,貨物運送,エクスペダイターズ・ジャパン（株）,東京都港区芝５－３１－１９　オーエックス田町ビル４階,35.6464802,139.745791,-
202496,その他卸売,グリーン，ツィード　アンド　カンパニー　ジャパン（株）,東京都港区芝５－３４－７　田町センタービル１４階,35.6462308,139.7469212,-
381595,石油石炭,コスモ石油（株）,東京都港区芝浦１－１－１　東芝ビル,35.651812,139.7576211,-
220059,広告,（株）ＴＢＷＡ＼ＨＡＫＵＨＯＤＯ　ＩＮＴＥＲＮＡＴＩＯＮＡＬ,東京都港区芝浦１－１３－１０　第三東運ビル,35.6462482,139.7532291,-
8490,化学,日本ケッチェン（株）,東京都港区芝浦１－２－１　シーバンスＮ館,35.6499772,139.7569822,-
380865,情報・システム・ソフト,コムネクスト（株）,東京都港区芝浦１－２－１　シーバンスＮ館１０階,35.6499772,139.7569822,-
12640,石油・燃料卸売,宇部シーアンドエー（株）,東京都港区芝浦１－２－１　シーバンスＮ館２１階,35.6499772,139.7569822,-
403466,精密機器卸売,コドニックス・リミテッド（株）,東京都港区芝浦１－３－１１,35.6495498,139.7553584,-
410404,精密機器卸売,コドニックス・ジャパン（有）,東京都港区芝浦１－３－１１　ニュー芝浦ビル１階,35.6495722,139.7553452,-
381193,精密機器卸売,ビカ・ジャパン（株）,東京都港区芝浦１－８－４　ＭＧ芝浦ビル６階,35.6484419,139.7541788,-
222210,精密機器卸売,ブレインラボ（株）,東京都港区芝浦３－２－１６　田町イーストビル２階,35.6441133,139.7491568,-
410290,情報・システム・ソフト,（株）華信コンピュータージャパン,東京都港区芝浦３－２－１６　田町イーストビル６階,35.6441133,139.7491568,-
209822,化学卸売,レキットベンキーザー・ジャパン（株）,東京都港区芝浦３－２－１６　田町イーストビル７階,35.6441133,139.7491568,-
202416,化学,（株）水島オキシトン,東京都港区芝浦３－４－１　グランパークタワー,35.6436764,139.7455608,-
11880,化学,日本エア・リキード（株）,東京都港区芝浦３－４－１　グランパークタワー３２・３３階,35.6435771,139.7458015,-
202555,旅行,（株）ツムラーレ　コーポレーション,東京都港区芝浦３－８－１０　ＭＡ芝浦ビル７階,35.643219,139.7509534,-
208021,精密機器卸売,エレクタ（株）,東京都港区芝浦３－９－１　芝浦ルネサイトタワー７階,35.6436988,139.7502746,-
222242,貨物運送,ユーピーエス　サプライチェーン　ソリューション・ジャパン（株）,東京都港区芝浦４－１２－３１　リバーサイド芝浦ビル,35.6400446,139.7491151,-
403300,食料品卸売,（株）ユニベイクジャパン,東京都港区芝浦４－１２－３５　ラティス芝浦５１１,35.6405319,139.7490713,-
210206,貨物運送,ユーピーエス・ジャパン（株）,東京都港区芝浦４－１３－２３　ＭＳ芝浦ビル１３階,35.6402164,139.7480258,-
202539,機械卸売,ストールジャパン（株）,東京都港区芝浦４－１６－２３　アクアシティ芝浦,35.6371315,139.7484781,-
209339,電気機器,ＣＴＯ（株）,東京都港区芝浦４－１８－２５,35.6374331,139.7491301,-
103158,電気機器,マイクロン　ジャパン（株）,東京都港区芝浦４－２－８　住友不動産三田ツインビル東館,35.6428893,139.7448901,-
208808,精密機器卸売,ライフテクノロジーズジャパン（株）,東京都港区芝浦４－２－８　住友不動産三田ツインビル東館,35.6428893,139.7448901,-
222071,精密機器卸売,オットーボック・ジャパン（株）,東京都港区芝浦４－４－４４　横河ビル８階,35.6420225,139.7452844,-
381603,石油・燃料卸売,コスモ石油ルブリカンツ（株）,東京都港区芝浦４－９－２５　芝浦スクエアビル,35.6399623,139.7459685,-
381604,他サービス,（株）コスモ総合研究所,東京都港区芝浦４－９－２５　芝浦スクエアビル,35.6399623,139.7459685,-
200909,機械,日本ボールドウィン（株）,東京都港区芝浦４－９－２５　芝浦スクエアビル１１階,35.6399623,139.7459685,-
381601,石油・燃料卸売,コスモ石油ガス（株）,東京都港区芝浦５－２９－１４　田町日工ビル,35.6458809,139.7448852,-
410027,パルプ・紙,グラフィック・パッケージング・インターナショナル（株）,東京都港区芝公園１－１－１１　興和芝公園ビル８階,35.6601572,139.7519137,-
209631,他製造業,エンズィンガー・ジャパン（株）,東京都港区芝公園１－１－１２　芝公園電気ビル７階,35.6601856,139.7517542,-
220192,他サービス,日本イージェイケイ（株）,東京都港区芝公園１－２－６　ランドマーク芝公園７階,35.6600439,139.7524705,-
381336,精密機器卸売,大船企業日本（株）,東京都港区芝公園１－２－６　ランドマーク芝公園ビル８階,35.6600439,139.7524705,-
220465,情報・システム・ソフト,クリアスウィフト（株）,東京都港区芝公園１－２－９　ハナイビルディング７階,35.6595814,139.7523907,-
202990,食料品卸売,日本マッケイン・フーズ（株）,東京都港区芝公園１－３－１　留園ビル,35.6598429,139.7514325,-
202216,建設,ピー・エイ・イー・デザイン・アンド・ファシリティー・マネージメント（日本支社）,東京都港区芝公園１－３－１０　ＰＡＥ芝ビル６階,35.6594727,139.7519056,-
220432,情報・システム・ソフト,アークソフト（株）,東京都港区芝公園１－３－１２　クローバー芝公園５階,35.6593495,139.7519914,-
103134,総合卸売,ＷＫＫ　ジャパン（株）,東京都港区芝公園１－７－１５　池田ビル２階,35.6571753,139.7521263,-
222050,リース,（株）エース総合リース,東京都港区芝公園１－８－１２　ＮＢＦ芝公園大門通りビル３階,35.6572262,139.7516937,-
403484,コンサルティング,クレアブ・ギャビン・アンダーソン（株）,東京都港区芝公園１－８－２１　芝公園リッジビル,35.6576998,139.7510532,-
100779,食料品卸売,眞露ジャパン（株）,東京都港区芝公園２－１１－１　住友不動産芝公園タワー１２階,35.6541669,139.7515922,-
209474,精密機器卸売,ブライトリング・ジャパン（株）,東京都港区芝公園２－２－２２　芝公園ビル,35.6570099,139.7508536,-
200809,機械卸売,メッツォオートメーション（株）,東京都港区芝公園２－４－１　ダヴィンチ芝パークＡ館１４階,35.6560072,139.7522298,-
208535,機械卸売,シュナイダーエレクトリックホールディングス（株）,東京都港区芝公園２－４－１　ダヴィンチ芝パークビル１３階,35.6556229,139.7522709,-
220941,機械卸売,メッツォペーパージャパン（株）,東京都港区芝公園２－４－１　芝パークＡ館１４階,35.6557257,139.7521736,-
360049,他サービス,（株）Ａｏｎ　Ｈｅｗｉｔｔ　ＨＲ　Ｏｎｅ,東京都港区芝公園２－４－１　芝パークＢ館１２階,35.6557257,139.7521736,-
203097,精密機器卸売,スミス・アンド・ネフュー　ウンドマネジメント（株）,東京都港区芝公園２－４－１　芝パークビルＡ館３階,35.6556229,139.7522709,-
225063,精密機器卸売,スミス・アンド・ネフュー　オーソペディックス（株）,東京都港区芝公園２－４－１　芝パークビルＡ館３階,35.6556229,139.7522709,-
225064,精密機器卸売,スミス・アンド・ネフュー　エンドスコピー（株）,東京都港区芝公園２－４－１　芝パークビルＡ館３階,35.6556229,139.7522709,-
208650,電気機器卸売,シュナイダーエレクトリック（株）,東京都港区芝公園２－４－１　芝パークビルＢ－１３階,35.6556229,139.7522709,-
209078,他製造業,ディーエスエム　ジャパン　エンジニアリング　プラスチックス（株）,東京都港区芝公園２－６－３　芝公園フロントタワー,35.655824,139.7507194,-
209855,化学,ＤＳＭニュートリションジャパン（株）,東京都港区芝公園２－６－３　芝公園フロントタワー,35.655824,139.7507194,-
220487,自動車販売,ボルボ・カーズ・ジャパン（株）,東京都港区芝公園２－６－３　芝公園フロントタワー,35.655824,139.7507194,-
222239,電気機器卸売,ユーティースターコムジャパン（株）,東京都港区芝公園２－６－３　芝公園フロントタワー,35.655824,139.7507194,-
103140,化学卸売,ディー・エス・エム　ジャパン（株）,東京都港区芝公園２－６－３　芝公園フロントタワー１１階,35.655824,139.7507194,-
392626,電気機器卸売,シナプティクス・ジャパン（株）,東京都港区芝公園２－６－３　芝公園フロントタワー２０階,35.655824,139.7507194,-
222250,航空,ルフトハンザドイツ航空会社（日本支社）,東京都港区芝公園３－１－１３,35.6604122,139.7486691,虎ノ門・六本木
220207,航空,スカンジナビア航空,東京都港区芝公園３－１－１３　アーバン芝公園ビル２階,35.6604738,139.7486112,虎ノ門・六本木
403204,情報・システム・ソフト,フォーフロント・テクノロジーズ（株）,東京都港区芝公園３－１－１４　ＦＬＥＸ芝公園４階,35.6602472,139.7488175,虎ノ門・六本木
403280,化学卸売,万華ジャパン（株）,東京都港区芝公園３－４－３０　３２芝公園ビル３階,35.6588544,139.746427,虎ノ門・六本木
8640,輸送機器,ＮＯＫ（株）,東京都港区芝大門１－１２－１５　正和ビル,35.6579002,139.7530295,-
9220,化学,ＮＯＫクリューバー（株）,東京都港区芝大門１－１２－１５　正和ビル,35.6579002,139.7530295,-
220934,電気機器,日本メクトロン（株）,東京都港区芝大門１－１２－１５　正和ビル,35.6579002,139.7530295,-
229072,化学,ユニマテック（株）,東京都港区芝大門１－１２－１５　正和ビル,35.6579002,139.7530295,-
100070,精密機器卸売,アメテック（株）（テーラーホブソン事業部）（登記社名　アメテック（株））,東京都港区芝大門１－１－３０　芝ＮＢＦタワー,35.6594905,139.7531503,-
410074,商品先物,ＧＩＮＧＡ　ＥＮＥＲＧＹ　ＪＡＰＡＮ（株）,東京都港区芝大門１－１５－８　布萬スカイビル５階,35.6570586,139.7539278,-
204609,情報・システム・ソフト,日本ナショナル・インスツルメンツ（株）,東京都港区芝大門１－９－９　野村不動産芝大門ビル８階,35.6586772,139.7536313,-
208729,精密機器卸売,ジーエスアイ・グループ・ジャパン（株）,東京都港区芝大門２－１０－１２　ＫＤＸ芝大門ビル１階,35.6538643,139.7531178,-
202309,パルプ・紙,ミードウェストベーコアジア（株）,東京都港区芝大門２－１２－７　ＲＢＭ芝パークビル８階,35.654019,139.7539078,-
208874,パルプ・紙,ミードウェストベーコ（株）,東京都港区芝大門２－１２－７　ＲＢＭ芝パークビル８階,35.654019,139.7539078,-
10930,化学,キャボットジャパン（株）,東京都港区芝大門２－５－５　住友芝大門ビル３階,35.6551394,139.7541075,-
11000,非鉄金属,キャボットスーパーメタル（株）,東京都港区芝大門２－５－５　住友芝大門ビル３階,35.6551394,139.7541075,-
104307,化学卸売,キャボット・スペシャルティ・ケミカルズ・インク,東京都港区芝大門２－５－５　住友芝大門ビル３階,35.6551394,139.7541075,-
224514,食料品卸売,アーラ・フーズ・イングレディエンツ・ジャパン（株）,東京都港区芝大門２－５－８　芝大門枚田ビル４階,35.6548696,139.7541391,-
402883,機械卸売,（株）エロワ日本,東京都港区芝大門２－６－４　芝大門笹野ビル,35.6553961,139.753808,-
200166,食料品卸売,ハワイアンホースト・ジャパン（株）,東京都港区芝大門２－６－４　芝大門笹野ビル３階,35.6553961,139.753808,-
209567,食料品卸売,テンダープラスジャパン（株）,東京都港区芝大門２－６－４　芝大門笹野ビル５階,35.6553961,139.753808,-
208016,機械卸売,クーパー・インダストリーズ・ジャパン（株）,東京都港区芝大門２－７－５　ＭＴビル３階,35.6553315,139.753289,-
210219,電気機器,ウォンズインターナショナルジャパン（株）,東京都港区新橋１－１８－１２　新橋一丁目ビル４階,35.668295,139.7563633,-
420194,海運,高麗海運ジャパン（株）,東京都港区新橋１－１８－１６　日本生命新橋ビル４階,35.6686029,139.7557445,-
210299,化学,コーロンインダストリー（東京事務所）,東京都港区新橋１－１８－２１　第一日比谷ビル９階,35.6687105,139.7552823,-
220500,情報・システム・ソフト,センドメール（株）,東京都港区新橋１－７－１０　汐留スペリアビル８階,35.6668241,139.7610235,-
222138,航空,中国南方航空有限公司（日本支社）,東京都港区新橋２－１－１　山口ビルディング３・４階,35.6682651,139.7551256,-
104021,総合卸売,東部ジャパン（株）,東京都港区新橋２－１－１０　第一田村町ビル９階,35.6681838,139.7550848,-
222140,旅行,中青旅日本（株）,東京都港区新橋３－１５－８　精工ビル３階,35.6653446,139.7558044,-
410411,旅行,（株）世界ツアー,東京都港区新橋３－１６－１１　中櫻ビル４階,35.6651394,139.757082,-
220994,食料品卸売,大象ジャパン（株）,東京都港区新橋３－１－９　３０１新橋ビル３階,35.6662362,139.7541303,-
9400,化学卸売,日本エヌエスシー（株）,東京都港区新橋３－５－１０　新三ビル２階,35.6660664,139.75479,-
209939,航空,マレーシアン・エアライン・システム・バーハド（日本支社）,東京都港区新橋４－２－１　２９森ビル,35.6633158,139.7544098,-
209281,食料品,（株）フレシネジャパン,東京都港区新橋４－３０－６　京急中はらビル７階,35.6645878,139.7536483,-
224280,石油・燃料卸売,中日石炭（株）,東京都港区新橋４－９－１　新橋プラザビル１４０４,35.6642689,139.7565538,-
200447,旅行,（株）ジェイティシィ,東京都港区新橋５－１４－４　新倉ビル,35.6623522,139.7564831,-
402996,機械卸売,フランク・モーン（株）,東京都港区新橋５－１５－５　交通ビル５階,35.6621014,139.7558298,-
200044,貨物運送,アラビアン　フレート　サービス（株）,東京都港区新橋５－１７－８　八巻ビル,35.6627162,139.7556877,-
410249,精密機器卸売,パーセプトロン　アジア　パシフィック（株）,東京都港区新橋５－３５－１０　新橋アネックス１階,35.662979,139.7533489,-
360108,化学卸売,シノケム・ジャパン（株）,東京都港区新橋５－５－１　ＩＭＣビル新橋６階,35.6640983,139.7541274,-
420060,航空,オーストリア航空（日本支社）,東京都港区新橋６－１７－１７　御成門センタービル７階,35.6613982,139.7519116,-
220178,電気機器卸売,日本セーフネット（株）,東京都港区新橋６－１７－１７　御成門センタービル８階,35.6613982,139.7519116,-
220996,食料品卸売,（株）アイピュア,東京都港区新橋６－８－１　信永中和ビル４階,35.6618879,139.7556198,-
380077,医薬品,メディシノバ・インク（東京事務所）,東京都港区西新橋１－１１－５　新橋中央ビル５階,35.6685767,139.7531293,虎ノ門・六本木
403362,その他卸売,スタインウェイ・ジャパン（株）,東京都港区西新橋１－１－１５　物産ビル別館８階,35.6700291,139.7534662,虎ノ門・六本木
222349,海運,ＳＫ海運ジャパン（株）,東京都港区西新橋１－１－３　東京桜田ビル８階,35.6703349,139.7522971,虎ノ門・六本木
403463,化学卸売,ケムチュラ・ジャパン（株）,東京都港区西新橋１－１４－２　新橋ＳＹビル４階,35.6684968,139.7542272,虎ノ門・六本木
103047,その他卸売,ワーナーエンターテイメントジャパン（株）,東京都港区西新橋１－２－９　日比谷セントラルビル,35.6696292,139.7545467,虎ノ門・六本木
360133,コンサルティング,マックス　コンサルティング　グループ　インク（東京オフィス）,東京都港区西新橋１－２－９　日比谷セントラルビル１４階,35.6696292,139.7545467,虎ノ門・六本木
403213,情報・システム・ソフト,ＮｅｔＥｎｒｉｃｈ（株）,東京都港区西新橋１－２－９　日比谷セントラルビル１４階,35.6696292,139.7545467,虎ノ門・六本木
392471,損害保険,アシュアランスフォアニンゲン・ガード・イェンシディグ,東京都港区西新橋１－５－８　川手ビル５階,35.6691121,139.7539278,虎ノ門・六本木
224277,海運,シノトランス・ジャパン（株）,東京都港区西新橋２－１１－６　ニュー西新橋ビル３階,35.6663806,139.7519914,虎ノ門・六本木
403238,広告,ルックメディア・ジャパン,東京都港区西新橋２－１３－１６　町田ビル３階,35.667199,139.7515722,虎ノ門・六本木
209635,通信・放送,オーブコムジャパン（株）,東京都港区西新橋２－１７－２　シグマ虎ノ門ビル７階,35.6663583,139.7508344,虎ノ門・六本木
200177,その他卸売,エロフハンソン（株）,東京都港区西新橋２－２－２　澤ビルディング３階,35.6677249,139.7514524,虎ノ門・六本木
410016,情報・システム・ソフト,（株）イソリア,東京都港区西新橋２－２－２　澤ビルディング６階,35.6677249,139.7514524,虎ノ門・六本木
222318,鉄鋼・金属卸売,（株）世亜ジャパン,東京都港区西新橋２－６－１　小川ビル５階,35.6671082,139.753269,虎ノ門・六本木
410364,映像・音楽,ＣＪ　Ｅｎｔｅｒｔａｉｎｍｅｎｔ　Ｊａｐａｎ（株）,東京都港区西新橋２－７－４　ＣＪビル１０階,35.6667547,139.7538221,虎ノ門・六本木
381334,通信・放送,ＣＪ　Ｍｅｄｉａ　Ｊａｐａｎ（株）,東京都港区西新橋２－７－４　ＣＪビル３階,35.6667547,139.7538221,虎ノ門・六本木
990610,銀行,パキスタン・ナショナル銀行（東京支店）,東京都港区西新橋２－７－４　ＣＪビル３階,35.6667547,139.7538221,虎ノ門・六本木
222100,食料品卸売,シージェイジャパン（株）,東京都港区西新橋２－７－４　ＣＪビル８階,35.6667547,139.7538221,虎ノ門・六本木
222324,化学卸売,エスケーシー（日本事務所）,東京都港区西新橋２－７－４　ＣＪビル８階,35.6667547,139.7538221,虎ノ門・六本木
210308,貨物運送,大韓通運ジャパン（株）,東京都港区西新橋２－７－４　ＣＪビル９階,35.6667547,139.7538221,虎ノ門・六本木
990090,銀行,バンコック銀行（在日支店）,東京都港区西新橋２－８－１０　バンコックバンクビル,35.6658091,139.7534287,虎ノ門・六本木
403087,情報・システム・ソフト,（株）ウィクレソフト・ジャパン,東京都港区西新橋３－１３－７　ＭＧ愛宕ビルディング６階,35.6644914,139.7508136,虎ノ門・六本木
210023,情報・システム・ソフト,ビトリア・テクノロジー（株）,東京都港区西新橋３－１５－１２　西新橋ＪＫビル７階,35.6648693,139.7498809,虎ノ門・六本木
200022,食料品卸売,アンズコフーズ（株）,東京都港区西新橋３－１６－１１　愛宕イーストビル１３階,35.6643279,139.7499198,虎ノ門・六本木
224078,その他卸売,ベーエムエフジャパン（株）,東京都港区西新橋３－２３－５　御成門郵船ビルディング１０階,35.6621311,139.7515922,虎ノ門・六本木
209431,精密機器卸売,日本アスペクト・ソフトウェア（株）,東京都港区西新橋３－２４－１０　ハリファックス御成門ビル６階,35.66145,139.7509524,虎ノ門・六本木
208030,情報・システム・ソフト,キュー・エー・ディー・ジャパン・インク,東京都港区西新橋３－２５－３３　ＮＰ御成門ビル７階,35.6617975,139.7497557,虎ノ門・六本木
200117,その他卸売,エイ・ハートロッド・ジャパン（株）,東京都港区西新橋３－６－１０　マストライフ西新橋ビル８階,35.6648114,139.7518329,虎ノ門・六本木
402858,情報・システム・ソフト,ファースト・エイペックス・コンサルティング（株）,東京都港区西麻布１－１４－１６－３０２,35.661162,139.7234213,-
420115,情報・システム・ソフト,（株）バイオス,東京都港区西麻布１－３－４　六本木ＯＧビル３階,35.6621452,139.7272681,-
220173,情報・システム・ソフト,（株）リンクメディア,東京都港区西麻布１－３－４　六本木ＯＧビル４階,35.6621452,139.7272681,-
5280,他製造業,日本タッパーウェア（株）,東京都港区西麻布２－２４－１１　麻布ウエストビル,35.6606758,139.722215,-
207109,その他卸売,ビクトリノックス・ジャパン（株）,東京都港区西麻布３－１８－５,35.6589779,139.7262056,-
204336,他サービス,（株）ナシオ　クローニン,東京都港区西麻布３－８－１２,35.6551532,139.7257467,-
220122,医薬品,ノバルティス　アニマルヘルス（株）,東京都港区西麻布４－１２－２４　興和西麻布ビル７階,35.6592245,139.721816,-
208037,医薬品,サンド（株）,東京都港区西麻布４－１６－１３　西麻布２８森ビル７階,35.6590376,139.7204593,-
104325,医薬品,ノバルティス　ファーマ（株）,東京都港区西麻布４－１７－３０,35.6589686,139.7193021,-
224097,医薬品,ノバルティスホールディングジャパン（株）,東京都港区西麻布４－１７－３０,35.6589686,139.7193021,-
403394,繊維・衣服卸売,ヴァレンティノ　ジャパン（株）,東京都港区青山５－９－１９　ＭＡＲ’Ｓ南青山７階,35.6631797,139.7111226,-
208121,コンサルティング,アクセンチュア（株）,東京都港区赤坂１－１１－４４　赤坂インターシティ,35.6688986,139.7425432,虎ノ門・六本木
208893,他製造業,レイセオン　インターナショナル　インク,東京都港区赤坂１－１１－４４　赤坂インターシティ１２階,35.6688986,139.7425432,虎ノ門・六本木
360116,情報・システム・ソフト,ＧＸＳ（株）,東京都港区赤坂１－１１－４４　赤坂インターシティ３階,35.6688986,139.7425432,虎ノ門・六本木
208527,ガラス・土石卸売,コーニングインターナショナル（株）,東京都港区赤坂１－１１－４４　赤坂インターシティ６階,35.6688986,139.7425432,虎ノ門・六本木
1950,ガラス・土石,コーニング　ジャパン（株）,東京都港区赤坂１－１１－４４　赤坂インターシティ７階,35.6688986,139.7425432,虎ノ門・六本木
381223,ホテル,ＩＨＧ・ＡＮＡ・ホテルズグループジャパン合同会社,東京都港区赤坂１－１２－２０　榎坂ヒルズ,35.6672974,139.7413916,虎ノ門・六本木
209707,コンサルティング,シンプソン・サッチャー　アンド　バートレット　外国法事務弁護士事務所,東京都港区赤坂１－１２－３２　アークヒルズ　アーク森ビル３７階,35.6671134,139.740135,虎ノ門・六本木
392713,投信・投資顧問,リクソー投信（株）,東京都港区赤坂１－１２－３２　アーク森ビル,35.6671134,139.740135,虎ノ門・六本木
990710,銀行,ソシエテ　ジェネラル銀行　東京支店,東京都港区赤坂１－１２－３２　アーク森ビル,35.6671134,139.740135,虎ノ門・六本木
999140,証券,ソシエテ　ジェネラル証券会社　東京支店,東京都港区赤坂１－１２－３２　アーク森ビル,35.6671134,139.740135,虎ノ門・六本木
209545,不動産,日本リージャス（株）,東京都港区赤坂１－１２－３２　アーク森ビル１２階,35.6671134,139.740135,虎ノ門・六本木
410020,情報・システム・ソフト,フレクセラ・ソフトウェア合同会社,東京都港区赤坂１－１２－３２　アーク森ビル１２階,35.6671134,139.740135,虎ノ門・六本木
380781,精密機器卸売,ＨＴＣ　Ｎｉｐｐｏｎ（株）,東京都港区赤坂１－１２－３２　アーク森ビル１３階,35.6671134,139.740135,虎ノ門・六本木
403261,他サービス,高橋＆デイビス法律事務所・外国法共同事業,東京都港区赤坂１－１２－３２　アーク森ビル１３階,35.6671134,139.740135,虎ノ門・六本木
998110,信託銀行,ソシエテジェネラル信託銀行（株）,東京都港区赤坂１－１２－３２　アーク森ビル１６階,35.6671134,139.740135,虎ノ門・六本木
360045,航空,エミレーツ航空会社,東京都港区赤坂１－１２－３２　アーク森ビル２２階,35.6671134,139.740135,虎ノ門・六本木
392535,コンサルティング,ベアリング・プライベート・エクイティ・アジア（株）,東京都港区赤坂１－１２－３２　アーク森ビル２２階,35.6671134,139.740135,虎ノ門・六本木
403185,投資業等,フェリエ・ホジソン（日本事務所）,東京都港区赤坂１－１２－３２　アーク森ビル２２階,35.6671134,139.740135,虎ノ門・六本木
210166,コンサルティング,（株）ローランド・ベルガー,東京都港区赤坂１－１２－３２　アーク森ビル２３階,35.6671134,139.740135,虎ノ門・六本木
100623,通信・放送,ＢＴジャパン（株）,東京都港区赤坂１－１２－３２　アーク森ビル２４階,35.6671134,139.740135,虎ノ門・六本木
392714,コンサルティング,リンカーン・インターナショナル（株）,東京都港区赤坂１－１２－３２　アーク森ビル３２階,35.6671134,139.740135,虎ノ門・六本木
220153,他金融,プレミア債権回収（株）,東京都港区赤坂１－１２－３２　アーク森ビル３４階,35.6671134,139.740135,虎ノ門・六本木
209962,銀行,イタリア銀行（東京駐在員事務所）,東京都港区赤坂１－１２－３２　アーク森ビル西館２７階,35.6671134,139.740135,虎ノ門・六本木
208913,コンサルティング,Ａ．Ｔ．カーニー（株）,東京都港区赤坂１－１２－３２　アーク森ビル東館３２階,35.6671134,139.740135,虎ノ門・六本木
360060,他サービス,中国中信集団有限公司駐日本代表処,東京都港区赤坂１－１４－５　アークヒルズエグゼクティブタワーＮ３１１,35.6667143,139.7420909,虎ノ門・六本木
220905,化学卸売,ウンジンケミカル（株）（日本事務所）,東京都港区赤坂１－３－５　赤坂アビタシオンビル７階,35.6704381,139.7441098,虎ノ門・六本木
220276,建設,レンドリース・ジャパン（株）,東京都港区赤坂１－７－１　赤坂榎坂森ビル３階,35.6691789,139.7417532,虎ノ門・六本木
206015,その他卸売,（株）グッドイヤーエイビエーションジャパン,東京都港区赤坂１－９－１３　三会堂ビル,35.6690108,139.7411793,虎ノ門・六本木
8400,その他卸売,日本グッドイヤー（株）,東京都港区赤坂１－９－１３　三会堂ビル３階,35.6697898,139.7441678,虎ノ門・六本木
222301,鉄鋼・金属卸売,（株）ディーケーシージャパン,東京都港区赤坂２－１１－１５　第２堀内ビル７階,35.6704822,139.7412113,-
220138,生命保険,ピーシーエー生命保険（株）,東京都港区赤坂２－１１－７　ＡＴＴ新館,35.6698452,139.7410732,-
220101,情報・システム・ソフト,エフセキュア（株）,東京都港区赤坂２－１１－７　ＡＴＴ新館６階,35.6698452,139.7410732,-
207005,電気機器卸売,アビッドテクノロジー（株）,東京都港区赤坂２－１１－７　ＡＴＴ新館ビル４階,35.6699423,139.7411247,-
208885,投信・投資顧問,ラザード・ジャパン・アセット・マネージメント（株）,東京都港区赤坂２－１１－７　赤坂ツインタワー（ＡＴＴ）新館７階,35.6698452,139.7410732,-
990530,銀行,ロイズ・ティーエスビー・バンク　ピーエルシー（東京支店）,東京都港区赤坂２－１１－７　赤坂ツインタワー新館５階,35.6698452,139.7410732,-
201305,映像・音楽,ワーナー・チャペル音楽出版（株）,東京都港区赤坂２－１４－２７　国際新赤坂ビル東館,35.672404,139.7371413,-
200123,その他卸売,エクマン・パルプ・アンドペーパー（株）,東京都港区赤坂２－１６－２０　トリオ赤坂ビル３階,35.6712027,139.7382589,-
200897,鉄鋼・金属卸売,プランゼージャパン（株）,東京都港区赤坂２－１７－２２　赤坂ツインタワー８階,35.6695725,139.7399784,-
403488,情報・システム・ソフト,トラベルズー・ジャパン（株）,東京都港区赤坂２－１７－２２　赤坂ツインタワービル東館１５階,35.6695725,139.7399784,-
3070,石油・燃料卸売,ＰＰＴエナジートレーディング（株）,東京都港区赤坂２－１７－２２　赤坂ツインタワー東館１１階,35.6695725,139.7399784,-
210001,情報・システム・ソフト,日本アリバ（株）,東京都港区赤坂２－１７－２２　赤坂ツインタワー東館１１階,35.6695725,139.7399784,-
410032,他サービス,インターコール・ジャパン（株）,東京都港区赤坂２－１７－２２　赤坂ツインタワー東館１５階,35.6695725,139.7399784,-
104203,総合卸売,ＬＧジャパン（株）,東京都港区赤坂２－１７－２２　赤坂ツインタワー東館１６階,35.6695725,139.7399784,-
210297,電気機器,ＬＳ産電（東京事務所）,東京都港区赤坂２－１７－２２　赤坂ツインタワー東館１６階,35.6695725,139.7399784,-
210298,化学,ＬＧ化学（東京支社）,東京都港区赤坂２－１７－２２　赤坂ツインタワー東館１６階,35.6695725,139.7399784,-
360140,電気機器卸売,ＬＧ　イノテック（株）（日本支社）,東京都港区赤坂２－１７－２２　赤坂ツインタワー本館１４階,35.6695725,139.7399784,-
990960,銀行,彰化商業銀行（東京支店）,東京都港区赤坂２－１７－２２　赤坂ツインタワー本館１５階,35.6695725,139.7399784,-
220828,コンサルティング,マクラガン　パートナーズ　アジア　インク,東京都港区赤坂２－１７－２２　赤坂ツインタワー本館１６階,35.6695725,139.7399784,-
380973,精密機器卸売,ライト・メディカル・ジャパン（株）,東京都港区赤坂２－１７－２２　赤坂ツインタワー本館１６階,35.6695725,139.7399784,-
403071,コンサルティング,エーオン　ヒューイット　ジャパン（株）,東京都港区赤坂２－１７－２２　赤坂ツインタワー本館１６階,35.6695725,139.7399784,-
410336,人材派遣・業務請負,ヘイズ・スペシャリスト・リクルートメント・ジャパン（株）,東京都港区赤坂２－１７－２２　赤坂ツインタワー本館７階,35.6695725,139.7399784,-
208341,電気機器卸売,ＬＧ　Ｅｌｅｃｔｒｏｎｉｃｓ　Ｊａｐａｎ（株）,東京都港区赤坂２－１７－２２　赤坂ツインタワー本館９階,35.6695725,139.7399784,-
991070,銀行,中小企業銀行（東京支店）,東京都港区赤坂２－１７－２２　赤坂ツインタワー本館９階,35.6695725,139.7399784,-
224541,その他卸売,（株）グライナー・ジャパン,東京都港区赤坂２－１７－４４　福吉坂ビル,35.6695939,139.7388975,-
200731,医薬品,日本アルコン（株）,東京都港区赤坂２－１７－７　赤坂溜池タワー,35.6711766,139.7392515,-
210230,電気機器,日本アバイア（株）,東京都港区赤坂２－１７－７　赤坂溜池タワー,35.6711766,139.7392515,-
100505,化学卸売,（株）ピエールファーブルジャポン,東京都港区赤坂２－１７－７　赤坂溜池タワー２階,35.6711385,139.7392574,-
420199,情報・システム・ソフト,タレスジャパン（株）,東京都港区赤坂２－１７－７　赤坂溜池タワー８階,35.6711385,139.7392574,-
220753,通信・放送,（株）コスモブリッジ,東京都港区赤坂２－１９－８　赤坂２丁目アネックスビル３階,35.6684002,139.7398582,-
209645,航空,エア・カナダ,東京都港区赤坂２－２－１７　ニッセイ溜池山王ビル３階,35.6716563,139.7422506,-
410115,コンサルティング,プログレス（有）,東京都港区赤坂２－２２－１９　南部坂アネックス６階,35.6684753,139.7384784,-
220972,食料品卸売,ユアキッチンサービス（株）,東京都港区赤坂２－２３－１,35.6681635,139.7394999,-
202482,飲食・外食,エームサービス（株）,東京都港区赤坂２－２３－１　アークヒルズフロントタワー,35.6681141,139.73947,-
220426,他サービス,（株）メフォス,東京都港区赤坂２－２３－１　アークヒルズフロントタワー１８階,35.6681141,139.73947,-
360022,情報・システム・ソフト,ネットスイート（株）,東京都港区赤坂２－５－２７　ＳＫＩビル２階,35.6731804,139.7388975,-
222291,航空,エジプト航空（東京支社）,東京都港区赤坂２－５－４　赤坂室町ビル１階,35.6728628,139.7395362,-
209786,食料品卸売,ハーバライフ・オブ・ジャパン（株）,東京都港区赤坂２－９－１１　オリックス赤坂２丁目ビル,35.6710722,139.7409732,-
380740,他金融,トラベレックスジャパン（株）,東京都港区赤坂２－９－１１　オリックス赤坂２丁目ビル６階,35.6710722,139.7409732,-
220459,コンサルティング,カート・サーモン・ユーエス・インク（日本支社）,東京都港区赤坂３－１１－３　赤坂中川ビル,35.6750381,139.7371812,-
200803,化学卸売,日本シャーウイン・ウィリアムズ（株）,東京都港区赤坂３－２１－１２　陶香堂ビル６階,35.6765675,139.7357642,-
380995,情報・システム・ソフト,グラフィソフトジャパン（株）,東京都港区赤坂３－２－１２　赤坂ノアビル４階,35.6754973,139.7377001,-
392837,情報・システム・ソフト,ペンタセキュリティシステムズ（株）,東京都港区赤坂３－２－８　アセンド赤坂３階,35.6756408,139.7377001,-
990131,銀行,中國銀行（東京支店）,東京都港区赤坂３－４－１,35.6743532,139.7382621,-
392756,建築設計,スティーブン　リーチ　アソシエイツ,東京都港区赤坂３－６－４　５階,35.6738374,139.7382167,-
224462,精密機器卸売,エダップテクノメド（株）,東京都港区赤坂３－９－１８　赤坂見附ＫＩＴＡＹＡＭＡビル９階,35.6774946,139.7359872,-
410107,不動産,（株）パシフィカ・キャピタル,東京都港区赤坂４－１－３１　アカネビル５階,35.6767828,139.7348263,-
100305,精密機器,日本ベクトン・ディッキンソン（株）,東京都港区赤坂４－１５－１　赤坂ガーデンシティ,35.6742711,139.7314575,-
8800,機械,日本ロバロ（株）,東京都港区赤坂４－１５－１　赤坂ガーデンシティ１７階,35.6742711,139.7314575,-
210079,機械卸売,Ｆ５ネットワークス　ジャパン（株）,東京都港区赤坂４－１５－１　赤坂ガーデンシティ１９階,35.6742711,139.7314575,-
209958,航空,アリタリア－イタリア航空会社（日本支社）,東京都港区赤坂４－１５－１　赤坂ガーデンシティ２階,35.6742711,139.7314575,-
403081,証券,リクイドネット証券（株）,東京都港区赤坂４－１５－１　赤坂ガーデンシティ４階,35.6742711,139.7314575,-
207043,情報・システム・ソフト,サイベース（株）,東京都港区赤坂４－１５－１　赤坂ガーデンシティ５階,35.6742711,139.7314575,-
4330,金属製品,ヘガネスジャパン（株）,東京都港区赤坂４－２－１９　赤坂シャスタ・イースト,35.675301,139.7350657,-
220261,石油・燃料卸売,トタル・ルブリカンツ・ジャパン（株）,東京都港区赤坂４－２－１９　赤坂シャスタイースト８階,35.675301,139.7350657,-
381108,他サービス,インターナショナルＳＯＳジャパン（株）,東京都港区赤坂４－２－６　住友不動産新赤坂ビル１１階,35.6755405,139.7353052,-
403427,コンサルティング,コントロール・リスクス・グループ（株）,東京都港区赤坂４－２－６　住友不動産新赤坂ビル１１階,35.6755405,139.7353052,-
206013,情報・システム・ソフト,（株）インフィニ　トラベル　インフォメーション,東京都港区赤坂４－２－６　住友不動産新赤坂ビル６階,35.6755405,139.7353052,-
200772,他サービス,日本カルミック（株）,東京都港区赤坂４－８－１９　赤坂表町ビル,35.6761932,139.7338484,-
392463,電気機器卸売,ユーブロックスジャパン（株）,東京都港区赤坂４－８－６　赤坂余湖ビル６階,35.6757506,139.7337287,-
210100,食料品,タイソン・インターナショナル・サービスセンター・インク・エイシア,東京都港区赤坂４－９－１７　赤坂第一ビル１０階,35.6747582,139.7325513,-
10010,医薬品,キャタレント・ジャパン（株）,東京都港区赤坂４－９－１７　赤坂第一ビル３階,35.6747582,139.7325513,-
12330,化学,モメンティブ・パフォーマンス・マテリアルズ・ジャパン合同会社,東京都港区赤坂５－２－２０　赤坂パークビル,35.6722095,139.7333495,-
392916,他サービス,日本ＧＥ（株）,東京都港区赤坂５－２－２０　赤坂パークビル,35.6722095,139.7333495,-
224555,貸金・信販・カード,ＧＥジャパン・ファンディング（株）,東京都港区赤坂５－２－２０　赤坂パークビル１５階,35.6722095,139.7333495,-
104018,医薬品,ジェンザイム・ジャパン（株）,東京都港区赤坂５－３－１　赤坂Ｂｉｚタワー,35.673175,139.7363593,-
208507,証券,ＢＧＣ証券会社（東京支店）,東京都港区赤坂５－３－１　赤坂Ｂｉｚタワー　３８階,35.673175,139.7363593,-
12350,映像・音楽,（株）ＥＭＩミュージック・ジャパン,東京都港区赤坂５－３－１　赤坂Ｂｉｚタワー２７階,35.673175,139.7363593,-
100508,情報・システム・ソフト,トムソン・ロイター・マーケッツ（株）,東京都港区赤坂５－３－１　赤坂Ｂｉｚタワー３０階,35.673175,139.7363593,-
420052,投資業等,トレードウェブ・ヨーロッパ証券会社（東京支店）,東京都港区赤坂５－３－１　赤坂Ｂｉｚタワー３０階,35.673175,139.7363593,-
208506,証券,インスティネット証券会社（東京支店）,東京都港区赤坂５－３－１　赤坂Ｂｉｚタワー３６階,35.673175,139.7363593,-
222122,新聞・出版,シンガポールプレスホールディングス（オーバーシーズ）リミテッド（東京オフィス）,東京都港区赤坂６－６－２８－５Ａ,35.6704644,139.7372487,-
209954,投信・投資顧問,ラッセル・インベストメント（株）,東京都港区赤坂７－３－３７　プラース・カナダ,35.6733793,139.7284006,-
104007,繊維・衣服卸売,（株）エスカーダ・ジャパン,東京都港区赤坂７－３－３７　プラース・カナダ２階,35.6733793,139.7284006,-
403366,機械卸売,シトマジャパン（株）,東京都港区赤坂７－５－４７　Ｕ＆Ｍ赤坂ビル３階,35.6721229,139.7299896,-
104340,その他卸売,クリストフル　ジャパン（株）,東京都港区赤坂８－１０－３９　赤坂ＫＳＡビル２階,35.6703739,139.7286856,-
222160,輸送用機器卸売,日本イートン（株）,東京都港区赤坂８－１１－３７　常和乃木坂ビル４階,35.6686356,139.7273136,-
210107,通信・放送,ＫＶＨ（株）,東京都港区赤坂８－５－２６　赤坂ＤＳビル,35.6710172,139.7268043,-
208094,他製造業,ユニバーサル　ミュージック合同会社,東京都港区赤坂８－５－３０,35.6718001,139.7267175,-
208661,ガラス・土石,ＳＧＬカーボン　ジャパン（株）,東京都港区赤坂９－５－２４,35.6679691,139.7284461,虎ノ門・六本木
222256,生命保険,ワイズ・インシュアランス（株）,東京都港区赤坂９－７－１,35.6662186,139.7303961,虎ノ門・六本木
104165,情報・システム・ソフト,ヤフー（株）,東京都港区赤坂９－７－１　ミッドタウン・タワー,35.6662315,139.7313051,虎ノ門・六本木
220063,証券,ステート・ストリート・グローバル・マーケッツ証券（株）,東京都港区赤坂９－７－１　ミッドタウン・タワー,35.6662315,139.7313051,虎ノ門・六本木
220208,投信・投資顧問,ステート・ストリート・グローバル・アドバイザーズ（株）,東京都港区赤坂９－７－１　ミッドタウン・タワー,35.6662315,139.7313051,虎ノ門・六本木
229012,他サービス,（株）ネットラスト,東京都港区赤坂９－７－１　ミッドタウン・タワー,35.6662315,139.7313051,虎ノ門・六本木
998100,信託銀行,ステート・ストリート信託銀行（株）,東京都港区赤坂９－７－１　ミッドタウン・タワー,35.6662315,139.7313051,虎ノ門・六本木
103068,電気機器,シスコシステムズ合同会社,東京都港区赤坂９－７－１　ミッドタウン・タワー（受付２１階）,35.6662315,139.7313051,虎ノ門・六本木
410195,投資業等,ブラック・ストーン・グループ・ジャパン（株）,東京都港区赤坂９－７－１　ミッドタウン・タワー２２階,35.6662186,139.7303961,虎ノ門・六本木
990880,銀行,ステート・ストリート銀行（東京支店）,東京都港区赤坂９－７－１　ミッドタウン・タワー３９階,35.6662186,139.7303961,虎ノ門・六本木
403233,コンサルティング,ハーバート・スミス外国法事務弁護士事務所,東京都港区赤坂９－７－１　ミッドタウン・タワー４１階,35.6662186,139.7303961,虎ノ門・六本木
222001,生命保険,ＲＧＡリインシュアランスカンパニー（日本支店）,東京都港区赤坂９－７－１　ミッドタウンタワー４１階,35.6662186,139.7303961,虎ノ門・六本木
3410,電気機器,富士ゼロックス（株）,東京都港区赤坂９－７－３　東京ミッドタウン,35.6659803,139.7308747,虎ノ門・六本木
392917,自動車販売,クライスラー日本（株）,東京都港区台場２－３－１　トレードピアお台場,35.6277852,139.7762674,-
100034,電気機器,ソーラーフロンティア（株）,東京都港区台場２－３－２,35.6286441,139.7778445,-
10830,化学卸売,シェルケミカルズジャパン（株）,東京都港区台場２－３－２　台場フロンティアビル,35.6286719,139.7777679,-
10950,石油石炭,昭和シェル石油（株）,東京都港区台場２－３－２　台場フロンティアビル,35.6286719,139.7777679,-
200433,建設,昭石エンジニアリング（株）,東京都港区台場２－３－２　台場フロンティアビル,35.6286719,139.7777679,-
220827,海運,平和汽船（株）,東京都港区台場２－３－２　台場フロンティアビル,35.6286719,139.7777679,-
360193,電力・ガス,（株）オンサイトパワー,東京都港区台場２－３－２　台場フロンティアビル,35.6286719,139.7777679,-
220765,倉庫・物流関連,ジャパンオイルネットワーク（株）,東京都港区台場２－３－２　台場フロンティアビル１０階,35.6286719,139.7777679,-
202411,石油石炭,昭石化工（株）,東京都港区台場２－３－２　台場フロンティアビル１１階,35.6286719,139.7777679,-
209929,化学卸売,ジャパン　ケムテック（株）,東京都港区台場２－３－２　台場フロンティアビル１３階,35.6286719,139.7777679,-
10230,その他卸売,（株）ライジングサン,東京都港区台場２－３－２　台場フロンティアビル１７階,35.6286719,139.7777679,-
222376,食料品,（株）ヤクルト本社,東京都港区東新橋１－１－１９,35.6660558,139.7604078,-
201168,その他卸売,マジョレットジャパン（株）,東京都港区東新橋１－２－７　丸進ビル,35.664497,139.7592382,-
420197,精密機器卸売,セント・ジュード・メディカル（株）,東京都港区東新橋１－５－２　汐留シティセンター,35.6654972,139.7608806,-
392849,他金融,ＩＧマーケッツ証券（株）,東京都港区東新橋１－５－２　汐留シティセンター１０階,35.6654972,139.7608806,-
2640,化学,三井・デュポン　ポリケミカル（株）,東京都港区東新橋１－５－２　汐留シティセンター１７階,35.6654972,139.7608806,-
410369,不動産,ＧＬプロパティーズ（株）,東京都港区東新橋１－５－２　汐留シティセンター４階,35.6654972,139.7608806,-
380841,生命保険,クレディ・アグリコル生命保険（株）,東京都港区東新橋１－９－２　汐留住友ビル,35.6622195,139.7601596,-
403228,投信・投資顧問,ＣＬＳＡ　Ｃａｐｉｔａｌ　Ｐａｒｔｎｅｒｓ　Ｊａｐａｎ（株）,東京都港区東新橋１－９－２　汐留住友ビル１４階,35.6621646,139.7601766,-
403288,石油・燃料卸売,（株）チャイナオイル・ジャパン,東京都港区東新橋１－９－２　汐留住友ビル１４階,35.6621646,139.7601766,-
410358,石油・燃料卸売,中国石油国際事業日本（株）,東京都港区東新橋１－９－２　汐留住友ビル１４階,35.6621646,139.7601766,-
990200,銀行,クレディ・アグリコル銀行（東京支店）,東京都港区東新橋１－９－２　汐留住友ビル１５階,35.6621646,139.7601766,-
999380,証券,クレディ・アグリコル証券会社（東京支店）,東京都港区東新橋１－９－２　汐留住友ビル１５階,35.6621646,139.7601766,-
222207,情報・システム・ソフト,ブルーコートシステムズ合同会社,東京都港区東新橋１－９－２　汐留住友ビル１６階,35.6621646,139.7601766,-
224530,食料品卸売,（株）エリナ,東京都港区東新橋１－９－２　汐留住友ビル１８階,35.6621646,139.7601766,-
392826,情報・システム・ソフト,（株）ＤＵＺＯＮ　ＪＡＰＡＮ,東京都港区東新橋２－１１－４　汐留プラザ３階,35.6607472,139.7561027,-
2340,広告,電通ヤング・アンド・ルビカム（株）,東京都港区東新橋２－１４－１　コモディオ汐留,35.66063,139.7574294,-
6680,精密機器,日本メドトロニック（株）,東京都港区東新橋２－１４－１　コモディオ汐留,35.66063,139.7574294,-
207008,情報・システム・ソフト,日本ブロードビジョン（株）,東京都港区東新橋２－１８－３　ルネパルティーレ汐留２階,35.6607064,139.7580603,-
103014,電気機器卸売,エリクソン・ジャパン（株）,東京都港区東新橋２－３－１７　ＭＯＭＥＮＴＯ　ＳＨＩＯＤＯＭＥ,35.6621933,139.7581002,-
2330,広告,（株）電通ワンダーマン,東京都港区東新橋２－４－１　サンマリーノ汐留,35.6618378,139.757661,-
360155,精密機器,（株）イムコア,東京都港区東新橋２－４－６　パラッツオシエナ５階,35.6616165,139.7576011,-
200537,輸送用機器卸売,ゼット・エフ・ジャパン（株）,東京都港区東新橋２－８－１　パラッツォアステック７，８階,35.6615208,139.7571074,-
224605,他金融,（株）メイタン・トラディション,東京都港区東新橋二丁目８－１　パラッツオアステック２階,35.6615223,139.7571641,-
420116,人材派遣・業務請負,（株）ストーンマン・コーポレーション,東京都港区東麻布１－１０－１２　カメダビル７階,35.6569001,139.7445858,-
204398,コンサルティング,ピー・エム・シー（株）,東京都港区東麻布１－２３－５　ＰＭＣビル,35.6561731,139.7444719,-
410028,その他卸売,Ｇｒｅｇｏｒｙ　Ｌｙｏｎ（株）,東京都港区東麻布１－２３－５　ＰＭＣビル５階,35.6561731,139.7444719,-
202087,その他卸売,日本フロス（株）,東京都港区東麻布１－２３－５　ＰＭＣビル９階,35.6561731,139.7444719,-
222055,精密機器卸売,ＳＨＦ　Ｊａｐａｎ（株）,東京都港区東麻布１－３－８　八束ビル,35.658373,139.7437819,-
360050,不動産,（株）アスコットジャパン,東京都港区東麻布１－８－４,35.6571317,139.7436272,-
3000,新聞・出版,エルゼビア・ジャパン（株）,東京都港区東麻布１－９－１５　東麻布１丁目ビル４階,35.6576467,139.7441667,-
381415,電気機器卸売,ゼンハイザージャパン（株）,東京都港区南青山１－１－１　新青山ビル,35.6725932,139.72518,-
6120,繊維・衣服卸売,リーバイ・ストラウス　ジャパン（株）,東京都港区南青山１－１－１　新青山ビル西館,35.6725281,139.7247508,-
210036,通信・放送,クアルコム・ジャパン（株）,東京都港区南青山１－１－１　新青山ビル西館１８階,35.6727357,139.7253676,-
222266,航空,ＫＬＭオランダ航空会社,東京都港区南青山１－１－１　新青山ビル西館９階,35.6727357,139.7253676,-
224439,航空,エールフランス航空,東京都港区南青山１－１－１　新青山ビル西館９階,35.6727357,139.7253676,-
6560,広告,（株）マッキャン・ワールドグループ　ホールディングス,東京都港区南青山１－１－１　新青山ビル東館,35.6725932,139.72518,-
206219,広告,（株）マッキャンヘルスケアワールドワイドジャパン,東京都港区南青山１－１－１　新青山ビル東館,35.6725932,139.72518,-
220443,広告,（株）エムアールエム・ワールドワイド,東京都港区南青山１－１－１　新青山ビル東館,35.6725932,139.72518,-
410405,広告,（株）マッキャンエリクソン,東京都港区南青山１－１－１　新青山ビル東館,35.6725932,139.72518,-
220167,広告,（株）モメンタム　ジャパン,東京都港区南青山１－１－１　新青山ビル東館１２階,35.6727357,139.7253676,-
410287,情報・システム・ソフト,アステアインターナショナルジャパン（株）,東京都港区南青山１－１－１　青山ツインタワー西館１４階,35.6726937,139.7254053,-
2616,化学,ＭＲＣ・デュポン（株）,東京都港区南青山１－１５－９　第４５興和ビル,35.6688537,139.7266944,-
200007,人材派遣・業務請負,アデコ（株）,東京都港区南青山１－１５－９　第４５興和ビル,35.6688537,139.7266944,-
200318,化学卸売,イーストマン　ケミカル　ジャパン（株）,東京都港区南青山２－１１－１６　ＭＥＴＬＩＦＥ青山ビル５階,35.671369,139.7213424,-
209610,人材派遣・業務請負,エイクエント（東京支店）,東京都港区南青山２－１１－１６　ＭＥＴＬＩＦＥ青山ビル９階,35.671369,139.7213424,-
100821,食料品卸売,ハーシージャパン（株）,東京都港区南青山２－１４－１７　ジョワレ南青山５階,35.6703785,139.7202996,-
202038,コンサルティング,アレックス・ツカダ　インターナショナル（株）,東京都港区南青山２－２－１５－１１３１,35.6713228,139.7241704,-
402986,コンサルティング,（株）リベルコン・ジャパン,東京都港区南青山２－２２－１７　川上ビル５階,35.670725,139.7192422,-
403084,化学卸売,コティ・プレステージ・ジャパン（株）,東京都港区南青山２－２－３　南青山Ｍ－ＳＱＵＡＲＥ,35.6714265,139.7242502,-
1130,総合卸売,ブルーベル・ジャパン（株）,東京都港区南青山２－２－３　南青山Ｍ－ＳＱＵＡＲＥ７階,35.6714214,139.7241871,-
403237,食料品卸売,ジェロボーム（株）,東京都港区南青山２－２４－１１　フォーラムビルディング７階,35.6701666,139.7179853,-
208397,電気機器卸売,パールシステムズ（株）,東京都港区南青山２－２－６－１１０１,35.6710977,139.7241903,-
229136,情報・システム・ソフト,新華ファイナンスジャパン（株）,東京都港区南青山２－２－８　ＤＦビル６階,35.6709917,139.7239709,-
224338,専門店,（株）ボーコンセプト・ジャパン,東京都港区南青山２－３１－８　Ｄａｉｗａ南青山ビル,35.6679392,139.7185383,-
100169,繊維・衣服卸売,日本フィスバ（株）,東京都港区南青山２－７－２８　ＣＨビル２階,35.6710179,139.7223069,-
360113,情報・システム・ソフト,ウェブルート・ソフトウェア（株）,東京都港区南青山３－１３－１８　３１３南青山８階,35.6655166,139.7133604,-
224602,その他卸売,ミクリ　ジャポン（株）,東京都港区南青山３－１７－１４　中山ビル３階,35.6645102,139.7138556,-
225004,他サービス,ＴＵＲＣＫ　Ｊａｐａｎ（株）,東京都港区南青山３－３－２３　ＭＢＤビル２階,35.6675795,139.7164092,-
208669,他サービス,（株）ＬＡＧＡＲＤＥＲＥ　ＡＣＴＩＶＥ　ＥＮＴＥＲＰＲＩＳＥＳ　ＪＡＰＡＮ,東京都港区南青山３－８－３８　南青山東急ビル５階,35.6671881,139.7150326,-
209337,情報・システム・ソフト,（株）ＳＬジャパン,東京都港区南青山３－８－５　アーバンプレム南青山３階,35.667142,139.7155393,-
209811,専門店,フルラジャパン（株）,東京都港区南青山４－１８－１６　フォレストヒルズウェストウィング２階,35.6633363,139.7173279,-
420029,情報・システム・ソフト,Ｔａｌｅｎｄ（株）,東京都港区南青山５－１０－１３　デコパージュ南青山４階,35.6623534,139.7112057,-
220232,化学卸売,ラ・プレリー　ジャパン（株）,東京都港区南青山５－１１－５,35.6620456,139.7121318,-
360078,繊維・衣服,（株）エトロ　ジャパン,東京都港区南青山５－１１－５　住友南青山ビル８階,35.6620604,139.7120834,-
209984,繊維・衣服卸売,（株）モスキーノ・ジャパン,東京都港区南青山５－１１－９　レキシントン青山４階,35.6618985,139.7125227,-
403492,繊維・衣服卸売,アエッフェ・ジャパン（株）,東京都港区南青山５－１１－９　レキシントン青山４階,35.6618985,139.7125227,-
209316,他小売,アメリカンラグ　シー　ジャパン（株）,東京都港区南青山５－１２－４　全菓連ビル８階,35.6613912,139.7132771,-
101078,繊維・衣服卸売,ヒューゴ　ボス　ジャパン（株）,東京都港区南青山５－２－１,35.6640979,139.7138142,-
209012,化学卸売,ＳＱＭジャパン（株）,東京都港区南青山５－３－１０　フロムファースト２０７,35.6628077,139.7159177,-
200886,その他卸売,ＵＰＭキュンメネ・ジャパン（株）,東京都港区南青山５－９－１９　ＭＡＲＳ南青山６階,35.6631797,139.7111226,-
220501,繊維・衣服卸売,セント・ジョン（株）,東京都港区南青山６－１１－１　スリーエフ南青山ビル８階,35.6602255,139.715671,-
200258,電気機器卸売,クォンテル（株）,東京都港区南青山６－５－５５,35.661899,139.7167345,-
403183,コンサルティング,トライコー（株）,東京都港区南麻布３－１９－２３　オーク南麻布ビル２階,35.6473872,139.7300369,-
1820,レジャー・娯楽,（株）クラブメッド,東京都港区南麻布３－２０－１　麻布グリーンテラス６階,35.6476903,139.7311924,-
380965,化学,フォモ・ジャパン（株）,東京都港区南麻布４－１１－２２　南麻布Ｔ＆Ｆビル８階,35.6471568,139.728206,-
403232,食料品卸売,（株）ハーネット・コーポレーション,東京都港区南麻布４－１３－２　麻布高橋ビル６階,35.64723,139.7234321,-
208075,他サービス,日本スチールケース（株）,東京都港区南麻布５－２－３２　興和広尾ビル４階,35.6546762,139.7231728,-
210118,その他卸売,（株）マーションジャパン,東京都港区南麻布５－２－３２　興和広尾ビル８階,35.6546762,139.7231728,-
410277,他小売,ＺｏｏｍＳｙｓｔｅｍｓ　Ｊａｐａｎ（株）,東京都港区南麻布５－２－３７　デペッシュモード３階,35.6552049,139.7235519,-
208001,生命保険,アクサ生命保険（株）,東京都港区白金１－１７－３　ＮＢＦプラチナタワー,35.6446802,139.734467,-
209990,生命保険,アクサ　ジャパン　ホールディング（株）,東京都港区白金１－１７－３　ＮＢＦプラチナタワー,35.6446802,139.734467,-
100403,投信・投資顧問,アクサ・インベストメント・マネージャーズ（株）,東京都港区白金１－１７－３　ＮＢＦプラチナタワー１４階,35.6446802,139.734467,-
1045,化学卸売,テサテープ（株）,東京都港区白金１－２７－６　白金高輪ステーションビル８階,35.6438865,139.7341877,-
403381,繊維・衣服卸売,Ｇｅｏｘ　Ｊａｐａｎ（株）,東京都港区白金１－２７－６　白金高輪ステーションビル８階,35.6438865,139.7341877,-
222089,食料品卸売,アコレード・ワインズ・ジャパン（株）,東京都港区白金台２－１０－２　白金台ビル５階,35.6338705,139.7308123,-
402876,他小売,（株）アンテプリマジャパン,東京都港区白金台３－１９－１　興和白金台ビル　５階,35.6346631,139.72014,-
9660,機械,パーカー・ハネフィン日本（株）,東京都港区白金台３－２－１０　白金台ビル２階,35.6380185,139.7268952,-
202782,情報・システム・ソフト,ニールセン・カンパニー合同会社,東京都港区白金台５－１２－７　ＭＧ白金台ビル,35.6397486,139.7221751,-
209318,その他卸売,キャロウェイゴルフ（株）,東京都港区白金台５－１２－７　ＭＧ白金台ビル,35.6397486,139.7221751,-
208006,電気機器卸売,クラウスアンドナイマー（株）（登記社名　Ｋｒａｕｓ＆Ｎａｉｍｅｒ（株））,東京都港区浜松町１－１１－６,35.6588786,139.7563185,-
220065,他サービス,（株）スパー・エフエム・ジャパン,東京都港区浜松町１－１２－１０　第一登茂ビル１階,35.6584791,139.7560237,-
204321,旅行,（株）ミキ・ツーリスト,東京都港区浜松町１－１８－１６　住友浜松町ビル,35.6586041,139.7552996,-
224515,他サービス,（株）アール・ダブリュ・エス・グループ,東京都港区浜松町１－１８－１６　住友浜松町ビル３階,35.6585218,139.7553851,-
392659,旅行,サザントラベルネットリミテッド,東京都港区浜松町１－２３－２　山下ビル７階,35.6575172,139.7566828,-
220435,精密機器,アフィメトリクス・ジャパン（株）,東京都港区浜松町１－２４－８　ＯＲＩＸ浜松町ビル７階,35.657292,139.7567027,-
380778,精密機器,ボルケーノ・ジャパン（株）,東京都港区浜松町１－３０－５　浜松町スクエア６階,35.6568814,139.7566628,-
103173,非鉄金属,エイチ・シー・スタルク（株）,東京都港区浜松町１－３０－５　浜松町スクエア９階,35.6568814,139.7566628,-
220823,機械,プレシテック・ジャパン（株）,東京都港区浜松町１－５－５　山手ビル２号館４階,35.6593808,139.7577825,-
200463,コンサルティング,ジャパン・アナリスト（株）,東京都港区浜松町２－１－１７　松永ビル,35.6561512,139.754886,-
360014,広告,ヤマトダイアログ＆メディア（株）,東京都港区浜松町２－１－１７　松永ビル４階,35.6561512,139.754886,-
392529,情報・システム・ソフト,ダウジャパン（株）,東京都港区浜松町２－１２－１１　中村ビル４階,35.6535128,139.7552853,-
220194,不動産,シービーアールイー（株）,東京都港区浜松町２－２－１２　ＪＥＩ浜松町ビル,35.6549548,139.754739,-
410273,他サービス,モベルコミュニケーションズリミテッド（日本支店）,東京都港区浜松町２－３－２５　マスキンビル３階,35.6548365,139.7551554,-
8320,化学,エヌ・イー　ケムキャット（株）,東京都港区浜松町２－４－１　世界貿易センタービル,35.6551747,139.7563434,-
9460,海運,（株）フェアフィールド　ジャパン,東京都港区浜松町２－４－１　世界貿易センタービル１２階１７号室,35.6551747,139.7563434,-
410356,他製造業,ライトポイント・ジャパン（株）,東京都港区浜松町２－４－１　世界貿易センタービル２１階,35.6551747,139.7563434,-
104437,鉄鋼・金属卸売,ＢＡＳＦ・メタルズ・ジャパン（株）,東京都港区浜松町２－４－１　世界貿易センタービル２４階,35.6551747,139.7563434,-
360088,機械卸売,三協（株）,東京都港区浜松町２－４－１　世界貿易センタービル２６階,35.6551747,139.7563434,-
100681,その他卸売,現代商船ジャパン（株）,東京都港区浜松町２－４－１　世界貿易センタービル３１階,35.6551747,139.7563434,-
220133,情報・システム・ソフト,エクイニクス・ジャパン（株）,東京都港区浜松町２－４－１　世界貿易センタービル３３階,35.6551747,139.7563434,-
360053,情報・システム・ソフト,ＯＳＩｓｏｆｔジャパン（株）,東京都港区浜松町２－７－１　ハウス浜松町ビル６階,35.6545643,139.7546864,-
360044,航空,トルコ航空会社（東京支社）,東京都港区浜松町２－７－１９　ＫＤＸ浜松町ビル２階,35.6544108,139.7547064,-
202348,化学卸売,グレースケミカルズ（株）,東京都港区浜松町２－９－６　浜松町エムプレスビル５階,35.6539091,139.7563633,-
200055,映像・音楽,（株）ワーナーミュージック・ジャパン,東京都港区北青山１－２－３　青山ビル３階,35.6726009,139.7227537,-
100262,鉄鋼・金属卸売,ユミコアジャパン（株）,東京都港区北青山１－２－３　青山ビル５階,35.6726009,139.7227537,-
410373,情報・システム・ソフト,エイケア・システムズ（株）,東京都港区北青山１－３－６　ＳＩビル青山,35.6725223,139.7223347,-
210030,他サービス,ＢＳＩグループジャパン（株）,東京都港区北青山２－１２－２８　青山ビル５階,35.6699378,139.715272,-
203025,情報・システム・ソフト,日本オラクル（株）,東京都港区北青山２－５－８　オラクル青山センター,35.6712461,139.7185629,-
410209,情報・システム・ソフト,（株）ブランコ・ジャパン,東京都港区北青山２－７－１１　青山但馬屋ビル８階,35.6707945,139.7181648,-
403152,通信・放送,ライムライト・ネットワークス・ジャパン（株）,東京都港区北青山２－７－２８　ＮＡビルディング２階,35.6718095,139.717078,-
6250,専門店,ＬＶＪ　グループ（株）,東京都港区北青山３－５－２９,35.6658197,139.7117433,-
1300,専門店,（株）ブルックス　ブラザーズ　ジャパン,東京都港区北青山３－５－６,35.6673358,139.7138514,-
224590,繊維・衣服卸売,（株）プチバトージャパン,東京都港区北青山３－６－１６　佐阿徳ビル５階,35.6648459,139.7117448,-
402893,情報・システム・ソフト,フィオラノソフトウェア（株）,東京都港区北青山３－６－７　青山パラシオタワー１１階,35.6653755,139.7113221,-
224084,飲食・外食,コールド・ストーン・クリーマリー・ジャパン（株）,東京都港区麻布十番２－１０－３　マイスクエアビル７階,35.6546731,139.7346364,-
200546,総合卸売,ＧＳジャパン（株）,東京都港区麻布台１－１１－１０　日総第２２ビル５階,35.6609204,139.7437874,虎ノ門・六本木
220891,食料品卸売,コドルニウ・ジャパン（株）,東京都港区麻布台１－１１－９　ＣＲ神谷町ビル３階,35.6606709,139.7435679,虎ノ門・六本木
392601,証券,サクソバンクＦＸ証券（株）,東京都港区麻布台１－７－２　神谷町サンケイビル１０階,35.66111,139.7431643,虎ノ門・六本木
103037,医薬品,デンツプライ三金（株）,東京都港区麻布台１－８－１０　偕成ビル,35.6599213,139.7417564,虎ノ門・六本木
224543,その他卸売,（株）グリーンウイングスジャパン,東京都港区麻布台１－９－１９　エナ麻布台ビル３階,35.6601086,139.7420185,虎ノ門・六本木
403414,その他卸売,（株）スカンジナビアン　モダン,東京都港区麻布台１－９－５　Ｔｏｋｕｉビル１階,35.6603041,139.7424359,虎ノ門・六本木
222372,専門店,ル・クルーゼジャポン（株）,東京都港区麻布台２－２－９,35.6585269,139.7424571,-
222307,機械卸売,東洋物産企業（株）,東京都港区麻布台２－３－３,35.6593224,139.7423135,-
210083,輸送用機器卸売,（株）グルーポアントリンジャパン,東京都港区麻布台２－３－３　Ｄａｉｗａ麻布台ビル４階,35.6593236,139.7423105,-
360097,情報・システム・ソフト,フュージョン・システムズ・ジャパン（株）,東京都港区麻布台２－３－３　Ｄａｉｗａ麻布台ビル８階,35.6593236,139.7423105,-
220744,その他卸売,（株）コリア　ワールド　トレーディング,東京都港区麻布台２－４－２　保科ビル,35.6588155,139.7435479,-
200438,情報・システム・ソフト,シンコム・システムズ・ジャパン（株）,東京都港区麻布台２－４－５　メソニック３９ＭＴビル,35.6593155,139.7434082,-
104519,証券,クレディ・スイス証券（株）,東京都港区六本木１－６－１　泉ガーデンタワー,35.664573,139.7395626,虎ノ門・六本木
209500,他サービス,モーニングスター（株）,東京都港区六本木１－６－１　泉ガーデンタワー,35.664573,139.7395626,虎ノ門・六本木
990370,銀行,クレディ・スイス銀行（東京支店）,東京都港区六本木１－６－１　泉ガーデンタワー,35.664573,139.7395626,虎ノ門・六本木
209151,コンサルティング,ラッセル・レイノルズ・アソシエイツ・ジャパン・インク,東京都港区六本木１－６－１　泉ガーデンタワー１４階,35.664573,139.7395626,虎ノ門・六本木
360106,コンサルティング,スキャデン・アープス外国法事務弁護士事務所（外国法共同事業スキャデン・アープス法律事務所）,東京都港区六本木１－６－１　泉ガーデンタワー２１階,35.664573,139.7395626,虎ノ門・六本木
410044,他サービス,ｉＲｅｓｅａｒｃｈ　Ｊａｐａｎ（株）,東京都港区六本木１－６－１　泉ガーデンタワー２８階,35.664573,139.7395626,虎ノ門・六本木
392570,コンサルティング,デービス・ポーク・アンド・ウォードウェル外国法事務弁護士事務所,東京都港区六本木１－６－１　泉ガーデンタワー３３階,35.664573,139.7395626,虎ノ門・六本木
220240,他金融,ロンバー・オディエ・ダリエ・ヘンチ信託（株）,東京都港区六本木１－６－１　泉ガーデンタワー４１階,35.664573,139.7395626,虎ノ門・六本木
222124,通信・放送,スプリント・インターナショナル・ジャパン（株）,東京都港区六本木１－６－１　六本木泉ガーデンタワー１０階,35.664573,139.7395626,虎ノ門・六本木
222037,コンサルティング,インフォシス　リミテッド（日本支店）,東京都港区六本木１－６－３　泉ガーデンウイング,35.6642061,139.7390572,虎ノ門・六本木
10420,その他卸売,エス・テー・デュポン・ジャポン（株）,東京都港区六本木１－７－２７　全特六本木ビルＷＥＳＴ棟３階,35.6639909,139.7390572,虎ノ門・六本木
8610,電気機器,モトローラ　ソリューションズ（株）,東京都港区六本木１－８－７　アーク八木ヒルズ,35.6632306,139.7395761,虎ノ門・六本木
200033,専門店,（株）アニエスベーサンライズ,東京都港区六本木１－８－７　アーク八木ヒルズ,35.6632306,139.7395761,虎ノ門・六本木
222084,機械卸売,（株）コーレンス,東京都港区六本木１－８－７　アーク八木ヒルズ,35.6632306,139.7395761,虎ノ門・六本木
380768,情報・システム・ソフト,アバナード（株）,東京都港区六本木１－８－７　アーク八木ヒルズ,35.6632306,139.7395761,虎ノ門・六本木
392835,精密機器卸売,コンバテック　ジャパン（株）,東京都港区六本木１－８－７　アーク八木ヒルズ５階,35.6632306,139.7395761,虎ノ門・六本木
8450,非鉄金属,ハンターダグラスジャパン（株）,東京都港区六本木１－８－７　アーク八木ヒルズ６階,35.6632306,139.7395761,虎ノ門・六本木
2200,医薬品,アボット　ジャパン（株）,東京都港区六本木１－９－９　六本木ファーストビル,35.6633449,139.7410944,虎ノ門・六本木
103082,リース,メルセデス・ベンツ・ファイナンス（株）,東京都港区六本木１－９－９　六本木ファーストビル,35.6633449,139.7410944,虎ノ門・六本木
104233,化学,ローディア日華（株）,東京都港区六本木１－９－９　六本木ファーストビル,35.6633449,139.7410944,虎ノ門・六本木
209171,化学卸売,ローディア　ジャパン（株）,東京都港区六本木１－９－９　六本木ファーストビル,35.6633449,139.7410944,虎ノ門・六本木
210046,自動車販売,メルセデス・ベンツ日本（株）,東京都港区六本木１－９－９　六本木ファーストビル,35.6633449,139.7410944,虎ノ門・六本木
360123,旅行,エクスペディアホールディングス（株）,東京都港区六本木１－９－９　六本木ファーストビル７階,35.6633171,139.7411329,虎ノ門・六本木
220982,不動産,オークウッドジャパン合同会社,東京都港区六本木３－１－１,35.6655427,139.7382225,虎ノ門・六本木
10460,総合卸売,日本サムスン（株）,東京都港区六本木３－１－１　六本木ティーキューブ,35.6655427,139.7382225,虎ノ門・六本木
210306,証券,サムスン證券（株）（東京支店）,東京都港区六本木３－１－１　六本木ティーキューブ,35.6655427,139.7382225,虎ノ門・六本木
204652,他サービス,（株）富士ゼロックス総合教育研究所,東京都港区六本木３－１－１　六本木ティーキューブ１４階,35.6654442,139.7382988,虎ノ門・六本木
210307,生命保険,三星生命保険（東京事務所）,東京都港区六本木３－１－１　六本木ティーキューブ１７階,35.6654442,139.7382988,虎ノ門・六本木
222344,損害保険,三星火災海上保険（株）（東京事務所）,東京都港区六本木３－１－１　六本木ティーキューブ１７階,35.6654442,139.7382988,虎ノ門・六本木
220220,その他卸売,カラン　ダッシュ　ジャパン（株）,東京都港区六本木３－１－２８　ＯＮＯ　ＲＯＰＰＯＮＧＩ　ＢＬＤＧ１階,35.6642928,139.7334483,虎ノ門・六本木
4020,不動産,（株）ハリファックス・アソシエイツ,東京都港区六本木３－１６－２６　ハリファックスビル,35.6618494,139.7365852,虎ノ門・六本木
220055,損害保険,ＪＬＴリスク・サービス・ジャパン（株）,東京都港区六本木３－１６－２６　ハリファックスビル４階,35.6618494,139.7365852,虎ノ門・六本木
410412,損害保険,ＪＬＴホールディングスジャパン（株）,東京都港区六本木３－１６－２６　ハリファックスビル４階,35.6618494,139.7365852,虎ノ門・六本木
410413,損害保険,ＪＬＴジャパン（株）,東京都港区六本木３－１６－２６　ハリファックスビル４階,35.6618494,139.7365852,虎ノ門・六本木
380982,不動産,（株）ハリファックス・アセットマネージメント,東京都港区六本木３－１６－２６　ハリファックスビル５階,35.6618494,139.7365852,虎ノ門・六本木
222013,他サービス,アシュリオン・ジャパン（株）,東京都港区六本木３－１６－３３　青葉六本木ビル４階,35.6620921,139.7363856,虎ノ門・六本木
220815,コンサルティング,ヒル　アンド　ノウルトン　ジャパン（株）,東京都港区六本木３－５－２７　六本木山田ビル８階,35.6643431,139.7354649,虎ノ門・六本木
209572,自動車販売,フォルクスワーゲンジャパン販売（株）,東京都港区六本木４－１－４　黒崎ビル２階,35.6654996,139.7359788,虎ノ門・六本木
203266,その他卸売,アミット・トレーディング（株）,東京都港区六本木４－９－５　ＩＳＯビル５階,35.6636317,139.7325137,虎ノ門・六本木
224344,電気機器卸売,タルジェッティ　ポールセン　ジャパン（株）,東京都港区六本木５－１７－１　ＡＸＩＳ　Ｂｌｄｇ．３階,35.6613589,139.7366755,虎ノ門・六本木
2080,総合卸売,（株）大昌貿易行,東京都港区六本木５－１８－２　大昌第２ビル,35.6611999,139.7372411,虎ノ門・六本木
208709,投信・投資顧問,ゴールドマン・サックス・アセット・マネジメント（株）,東京都港区六本木６－１０－１　六本木ヒルズ森タワー,35.6607345,139.7292066,虎ノ門・六本木
403157,情報・システム・ソフト,バイドゥ（株）,東京都港区六本木６－１０－１　六本木ヒルズ森タワー,35.6607345,139.7292066,虎ノ門・六本木
420036,証券,ニューエッジ・ジャパン証券（株）,東京都港区六本木６－１０－１　六本木ヒルズ森タワー,35.6607345,139.7292066,虎ノ門・六本木
999090,証券,ゴールドマン・サックス証券（株）,東京都港区六本木６－１０－１　六本木ヒルズ森タワー,35.6607345,139.7292066,虎ノ門・六本木
100086,情報・システム・ソフト,ＳＡＳ　Ｉｎｓｔｉｔｕｔｅ　Ｊａｐａｎ（株）,東京都港区六本木６－１０－１　六本木ヒルズ森タワー１１階,35.6607345,139.7292066,虎ノ門・六本木
101127,投信・投資顧問,インベスコ投信投資顧問（株）,東京都港区六本木６－１０－１　六本木ヒルズ森タワー１４階私書箱１１５号,35.6607345,139.7292066,虎ノ門・六本木
209134,石油石炭,ＢＰジャパン（株）,東京都港区六本木６－１０－１　六本木ヒルズ森タワー１５階,35.6607345,139.7292066,虎ノ門・六本木
224067,電気機器,レノボ・ジャパン（株）,東京都港区六本木６－１０－１　六本木ヒルズ森タワー１８階,35.6607345,139.7292066,虎ノ門・六本木
103157,輸送用機器卸売,ユーロコプター　ジャパン（株）,東京都港区六本木６－１０－１　六本木ヒルズ森タワー１９階,35.6607345,139.7292066,虎ノ門・六本木
220300,輸送機器,エアバス・ジャパン（株）,東京都港区六本木６－１０－１　六本木ヒルズ森タワー１９階,35.6607345,139.7292066,虎ノ門・六本木
220472,専門店,コーチ・ジャパン合同会社,東京都港区六本木６－１０－１　六本木ヒルズ森タワー１９階,35.6607345,139.7292066,虎ノ門・六本木
1000,化学,ＢＡＳＦジャパン（株）,東京都港区六本木６－１０－１　六本木ヒルズ森タワー２１階,35.6607345,139.7292066,虎ノ門・六本木
2670,化学,ＢＡＳＦ出光（株）,東京都港区六本木６－１０－１　六本木ヒルズ森タワー２１階,35.6607345,139.7292066,虎ノ門・六本木
392578,コンサルティング,アーキス外国法事務弁護士事務所,東京都港区六本木６－１０－１　六本木ヒルズ森タワー２３階,35.6607345,139.7292066,虎ノ門・六本木
100139,コンサルティング,ブーズ・アンド・カンパニー（株）,東京都港区六本木６－１０－１　六本木ヒルズ森タワー２７階,35.6607345,139.7292066,虎ノ門・六本木
990230,銀行,バークレイズ・バンク・ピーエルシー（バークレイズ銀行）（東京支店）,東京都港区六本木６－１０－１　六本木ヒルズ森タワー３１階,35.6607345,139.7292066,虎ノ門・六本木
999410,証券,バークレイズ・キャピタル証券（株）,東京都港区六本木６－１０－１　六本木ヒルズ森タワー３１階,35.6607345,139.7292066,虎ノ門・六本木
206057,新聞・出版,タイム・インク（日本支社）,東京都港区六本木６－１０－１　六本木ヒルズ森タワー３４階,35.6607345,139.7292066,虎ノ門・六本木
410349,人材派遣・業務請負,テクノプロ・ホールディングス（株）,東京都港区六本木６－１０－１　六本木ヒルズ森タワー３５階,35.6607345,139.7292066,虎ノ門・六本木
210094,銀行,中國信託商業銀行（東京支店）,東京都港区六本木６－１０－１　六本木ヒルズ森タワー３７階,35.6607345,139.7292066,虎ノ門・六本木
210178,情報・システム・ソフト,（株）セールスフォース・ドットコム,東京都港区六本木６－１０－１　六本木ヒルズ森タワー３９階,35.6607345,139.7292066,虎ノ門・六本木
220466,情報・システム・ソフト,グーグル（株）,東京都港区六本木６－１０－１　六本木ヒルズ森タワー私書箱２２号,35.6607345,139.7292066,虎ノ門・六本木
410025,広告,（株）Ｇｅｏｒｇｅ　Ｐ．　Ｊｏｈｎｓｏｎ,東京都港区六本木６－１－２４　ラピロス六本木４階,35.6625951,139.7319127,虎ノ門・六本木
402901,情報・システム・ソフト,コムスコア・ジャパン（株）,東京都港区六本木６－１５－１　けやき坂テラス４階,35.6591343,139.7281099,虎ノ門・六本木
208644,コンサルティング,（株）ウォーターズ・アンド・アソシエイツ,東京都港区六本木６－１６－５０　トリプレックス　ヤナギワラ００１,35.6583717,139.72865,虎ノ門・六本木
210075,専門店,（株）フォリフォリジャパン,東京都港区六本木６－６－９　ピラミデ４階,35.6620098,139.7312113,虎ノ門・六本木
100028,化学卸売,クラランス（株）,東京都港区六本木６－８－１０,35.6612511,139.7325249,虎ノ門・六本木
222199,情報・システム・ソフト,フォーティネットジャパン（株）,東京都港区六本木７－１８－１８　住友不動産六本木通ビル８階,35.6620267,139.7284405,虎ノ門・六本木
104011,情報・システム・ソフト,マイクロフォーカス（株）,東京都港区六本木７－１８－１８　住友不動産六本木通ビル９階,35.6620267,139.7284405,虎ノ門・六本木
402860,コンサルティング,（株）インフォブリッジマーケティグ＆プロモーションズ,東京都港区六本木７－３－１３　トラスティ５階,35.6658843,139.7286323,虎ノ門・六本木
224091,精密機器卸売,リマージュジャパン（株）,東京都港区六本木７－４－８　ウインドビル２階,35.6651998,139.7282685,虎ノ門・六本木
205427,化学,日本グレーベカシュー（株）,東京都荒川区西日暮里２－６－２０,35.732681,139.7735748,-
8860,機械,日本シーラス（株）,東京都荒川区町屋６－６－１,35.7502357,139.7819013,-
205068,精密機器卸売,カスケード・マイクロテック（株）,東京都荒川区東日暮里５－７－１８　コスモパークビル１階,35.726941,139.7779073,-
200379,総合卸売,三共貿易（株）,東京都国立市東１－１３－１９,35.6975271,139.4507114,-
200391,電気機器卸売,ザイログ・ジャパン（株）,東京都国立市富士見台２－４３－４　私書箱２７号,35.6867759,139.4421078,-
392527,輸送用機器卸売,シカゴ・パウダード・メタル・プロダクツ・カンパニー日本支店,東京都三鷹市井の頭３－２４－３７,35.6963635,139.5815025,-
208609,精密機器卸売,アイデックス　ラボラトリーズ（株）,東京都三鷹市北野３－３－７,35.6768326,139.5834709,-
104420,広告,Ｅ－グラフィックス　コミュニケーションズ（株）,東京都三鷹市牟礼６－２５－２８,35.6838957,139.5717178,-
200908,輸送用機器卸売,日本ＳＡＦホランド（株）,東京都渋谷区宇田川町３－１４　渋谷セントラルビル,35.6628749,139.6986796,-
445,他小売,日本アムウェイ合同会社,東京都渋谷区宇田川町７－１,35.6638015,139.6964043,-
201146,電気機器卸売,ボーズ（株）,東京都渋谷区円山町２８－３　渋谷ＹＴビル,35.6558995,139.6945626,-
205009,他サービス,ル・コルドン・ブルー・パリ（株）,東京都渋谷区猿楽町２８－１３　ＲＯＯＢ－１,35.647823,139.7014095,-
222081,他サービス,ケルンメッセ（株）,東京都渋谷区恵比寿１－１３－６　恵比寿ＩＳビル５階,35.6472505,139.7120003,-
200744,ホテル,日本スターウッド・ホテル（株）,東京都渋谷区恵比寿１－１８－１８　恵比寿東急ビル２階,35.6475172,139.7139154,-
2370,その他卸売,アールストロームジャパン（株）,東京都渋谷区恵比寿１－１９－１５　ウノサワ東急ビル,35.6474157,139.7132495,-
500,機械卸売,ＳＰＸフローテクノロジージャパン（株）,東京都渋谷区恵比寿１－１９－１５　ウノサワ東急ビル２階,35.6474157,139.7132495,-
220469,情報・システム・ソフト,（株）ゲームオン,東京都渋谷区恵比寿１－１９－１９,35.6475668,139.7126915,-
410036,他サービス,ＩＭＧ（日本支社）,東京都渋谷区恵比寿１－２０－１８　三富ビル新館６階,35.6465699,139.7127392,-
222173,ガラス・土石卸売,日本モルガン・クルシブル（株）,東京都渋谷区恵比寿１－２１－３,35.646973,139.7142009,-
209490,電気機器卸売,ボーズ・オートモーティブ（株）,東京都渋谷区恵比寿１－２３－２３　恵比寿スクエア,35.6463436,139.7150241,-
208614,電気機器卸売,アクテル・ジャパン（株）,東京都渋谷区恵比寿１－２４－１４　ＥＸＯＳ恵比寿４階,35.6467355,139.7151159,-
360137,繊維・衣服卸売,レッド・ウィング・ジャパン（株）,東京都渋谷区恵比寿１－２４－４　ＡＳＫビル２階,35.6469171,139.7155776,-
209472,精密機器卸売,フェアチャイルドセミコンダクタージャパン（株）,東京都渋谷区恵比寿４－１－１８　恵比寿ネオナート３階,35.6455032,139.7110428,-
209850,情報・システム・ソフト,レッドハット（株）,東京都渋谷区恵比寿４－１－１８　恵比寿ネオナート８階,35.6455032,139.7110428,-
100683,広告,オグルヴィ・パブリック・リレーションズ・ワールドワイド・ジャパン（株）,東京都渋谷区恵比寿４－２０－３　恵比寿ガーデンプレイス・タワー２５階,35.6422106,139.7134456,-
208675,広告,オグルヴィ・アンド・メイザー・ジャパン合同会社,東京都渋谷区恵比寿４－２０－３　恵比寿ガーデンプレイス・タワー２５階,35.6422106,139.7134456,-
209200,広告,（株）ベイツアジアジャパン,東京都渋谷区恵比寿４－２０－３　恵比寿ガーデンプレイス・タワー２５階,35.6422106,139.7134456,-
209876,広告,オグルヴィ・ワン・ジャパン（株）,東京都渋谷区恵比寿４－２０－３　恵比寿ガーデンプレイス・タワー２５階,35.6422106,139.7134456,-
392538,広告,ネオ・アット・オグルヴィ（株）,東京都渋谷区恵比寿４－２０－３　恵比寿ガーデンプレイス・タワー２５階,35.6422106,139.7134456,-
392539,広告,オグルヴィ・アクション・ジャパン（株）,東京都渋谷区恵比寿４－２０－３　恵比寿ガーデンプレイス・タワー２５階,35.6422106,139.7134456,-
100341,投信・投資顧問,モルガン・スタンレー・インベストメント・マネジメント（株）,東京都渋谷区恵比寿４－２０－３　恵比寿ガーデンプレイスタワー,35.6422106,139.7134456,-
999260,証券,モルガン・スタンレーＭＵＦＧ証券（株）,東京都渋谷区恵比寿４－２０－３　恵比寿ガーデンプレイスタワー,35.6422106,139.7134456,-
209482,機械卸売,（株）フロージャパン,東京都渋谷区恵比寿４－２０－３　恵比寿ガーデンプレイスタワー１８階,35.6422106,139.7134456,-
410347,電気機器卸売,ユニダックス（株）,東京都渋谷区恵比寿４－２０－３　恵比寿ガーデンプレイスタワー２３階,35.6422106,139.7134456,-
360024,電気機器,ＮＸＰセミコンダクターズジャパン（株）,東京都渋谷区恵比寿４－２０－３　恵比寿ガーデンプレイスタワー２４階,35.6422106,139.7134456,-
104514,電気機器卸売,アヴネット　ジャパン（株）,東京都渋谷区恵比寿４－２０－３　恵比寿ガーデンプレイスタワー２９階,35.6422106,139.7134456,-
209464,コンサルティング,パーソネル・ディシジョンズ・インターナショナル・ジャパン（株）,東京都渋谷区恵比寿４－２０－３　恵比寿ガーデンプレイスタワー２階,35.6422106,139.7134456,-
203294,広告,ジェイ・ウォルター・トンプソン・ジャパン合同会社,東京都渋谷区恵比寿４－２０－３　恵比寿ガーデンプレイスタワー３０階,35.6422106,139.7134456,-
392789,広告,グループエム・ジャパン（株）,東京都渋谷区恵比寿４－２０－３　恵比寿ガーデンプレイスタワー３０階,35.6422106,139.7134456,-
380840,人材派遣・業務請負,スペシャライズドグループ（株）,東京都渋谷区恵比寿４－３－８　７階,35.6459571,139.7119865,-
208430,電気機器卸売,タンベルグデータ（株）,東京都渋谷区恵比寿４－４－７　第６伊藤ビル５階,35.6452637,139.7117707,-
209372,繊維・衣服卸売,（株）ザラ・ジャパン,東京都渋谷区恵比寿西１－１０－１１　フジワラビル６階,35.6467604,139.7076197,-
410173,他サービス,ＴＷＧワランティーサービスＩｎｃ．（日本支社）,東京都渋谷区恵比寿西１－１０－１１　フジワラビル８階,35.6467604,139.7076197,-
220451,情報・システム・ソフト,エンピレックス（株）,東京都渋谷区恵比寿西１－１０－１１　フジワラビルディング７階,35.6467079,139.7076117,-
210064,情報・システム・ソフト,英語タウン・ドット・コム（株）,東京都渋谷区恵比寿西１－１７－１０　ヒロ代官山ビル３階,35.6484608,139.7068637,-
360056,情報・システム・ソフト,（株）ファーンリッジ・ジャパン,東京都渋谷区恵比寿西２－２－６　恵比寿ファイブビル,35.6493687,139.7080306,-
381265,コンサルティング,（株）カルソフトジャパン,東京都渋谷区恵比寿西２－２－６　恵比寿ファイブビル４階,35.6493687,139.7080306,-
403168,他サービス,アルバトロス　グローバル　ソリューションズ（株）,東京都渋谷区恵比寿西２－２－６　恵比寿ファイブビル５０７,35.6493687,139.7080306,-
200255,繊維・衣服,クイックシルバー・ジャパン（株）,東京都渋谷区恵比寿南１－２０－６　第２１荒井ビル,35.6438919,139.7102464,-
420026,情報・システム・ソフト,（株）コンカー,東京都渋谷区恵比寿南１－５－５　ＪＲ恵比寿ビル　１１階,35.6467013,139.710201,-
410376,情報・システム・ソフト,（株）シルクロード　テクノロジー,東京都渋谷区恵比寿南１－５－５　ＪＲ恵比寿ビル１１階,35.6467013,139.710201,-
402976,機械卸売,ＧＥＡプロセス　エンジニアリング（株）,東京都渋谷区恵比寿南１－７－８　恵比寿サウスワン３階,35.6460986,139.7098459,-
224440,その他卸売,アルク　インターナショナル　ジャパン（株）,東京都渋谷区恵比寿南１－７－８　恵比寿サウスワン８階,35.6460986,139.7098459,-
203356,情報・システム・ソフト,ウインドリバー（株）,東京都渋谷区広尾１－１－３９　恵比寿プライムスクエアタワー２２階,35.650109,139.7125988,-
209819,コンサルティング,ペリージョンソン　コンサルティング（株）,東京都渋谷区広尾１－１－３９　恵比寿プライムスクエアタワー９階,35.650109,139.7125988,-
220157,他サービス,ペリージョンソン　レジストラー（株）,東京都渋谷区広尾１－１－３９　恵比寿プライムスクエアタワー９階,35.650109,139.7125988,-
210197,通信・放送,（株）トランザクト,東京都渋谷区広尾１－９－１６　広尾宮田ビル７階,35.6488283,139.7170476,-
1530,食料品,キャンベル　ジャパン（株）,東京都渋谷区広尾５－８－１４　東京建物広尾ビル１０階,35.6482982,139.7213905,-
104138,食料品卸売,モルソン・クアーズ・ジャパン（株）,東京都渋谷区桜丘町１２－１０　渋谷インフォスアネックスＬＢ階,35.6544257,139.7014682,-
381077,精密機器,キュテラ（株）,東京都渋谷区桜丘町１２－１０　住友不動産渋谷インフォスアネックス３階,35.6544257,139.7014682,-
210032,生命保険,カーディフ・アシュアランス・ヴィ（日本支店）,東京都渋谷区桜丘町２０－１　渋谷インフォスタワー９階,35.655329,139.7009496,-
220622,損害保険,カーディフ・アシュアランス・リスク・ディヴェール（日本支店）,東京都渋谷区桜丘町２０－１　渋谷インフォスタワー９階,35.655329,139.7009496,-
410380,情報・システム・ソフト,ジンガジャパン（株）,東京都渋谷区桜丘町２２－１４　Ｎ．Ｅ．Ｓ．ビル２階,35.654341,139.7000521,-
210325,投資業等,バンガード・インベストメンツ・ジャパン（株）,東京都渋谷区桜丘町２２－１４　Ｎ．Ｅ．ＳビルＮ棟６階,35.654341,139.7000521,-
220540,情報・システム・ソフト,ディジ　インターナショナル（株）,東京都渋谷区桜丘町２２－１４　ＮＥＳビルＳ棟８階,35.6545045,139.699883,-
224211,建築設計,オーヴ・アラップ・アンド・パートナーズ・ジャパン・リミテッド,東京都渋谷区桜丘町２４－４　東武　富士ビル３階,35.6565833,139.7005906,-
209619,機械,ＡＢＢ（株）,東京都渋谷区桜丘町２６－１　セルリアンタワー,35.6564093,139.6993541,-
222233,情報・システム・ソフト,ＧＭＯメイクショップ（株）,東京都渋谷区桜丘町２６－１　セルリアンタワー,35.6564093,139.6993541,-
220234,情報・システム・ソフト,アクチュエイト　ジャパン（株）,東京都渋谷区桜丘町２６－１　セルリアンタワー１５階,35.6564093,139.6993541,-
222044,情報・システム・ソフト,ウォッチガード・テクノロジー・ジャパン（株）,東京都渋谷区桜丘町２６－１　セルリアンタワー１５階,35.6564093,139.6993541,-
420191,コンサルティング,日本ＧＭＡＰ（株）,東京都渋谷区桜丘町２６－１　セルリアンタワー１５階,35.6564093,139.6993541,-
410409,貸金・信販・カード,マスターカード・ジャパン（株）,東京都渋谷区桜丘町２６－１　セルリアンタワー１６階,35.6564093,139.6993541,-
360026,情報・システム・ソフト,日本ソナス・ネットワークス（株）,東京都渋谷区桜丘町２６－１　セルリアンタワー５階,35.6564093,139.6993541,-
224520,食料品卸売,ヴァイスハルト・インターナショナル（日本支店）,東京都渋谷区桜丘町８－１７　シャレー渋谷Ｂ５１２,35.6557117,139.7026253,-
202292,その他卸売,ヘラマンタイトン（株）,東京都渋谷区笹塚１－４８－３　住友不動産笹塚太陽ビル６階,35.6737964,139.6695643,-
101035,建設,ジョンソンコントロールズ（株）,東京都渋谷区笹塚１－５０－１　笹塚ＮＡビル,35.6746251,139.6713804,-
420162,食料品,（株）バーガーキング・ジャパン,東京都渋谷区笹塚２－１９－２　ＴＳＫ笹塚ビル２階,35.6741135,139.6653183,-
220587,電気機器,リードテックジャパン（株）,東京都渋谷区笹塚２－１９－２　ＴＳＫ笹塚ビル８階,35.6741135,139.6653183,-
224510,その他卸売,ユービーアイソフト（株）,東京都渋谷区渋谷１－１９－５　渋谷美竹ビル３階,35.6624739,139.7056209,-
12790,その他卸売,（株）ウノアエレ　ジャパン,東京都渋谷区渋谷１－２３－１８　渋谷ワールドイーストビル３階,35.6623664,139.7024456,-
207097,食料品卸売,日本ネイチャーズサンシャイン　プロダクツ合同会社,東京都渋谷区渋谷１－３－３　ＳＩＡ青山ビルディング５階,35.6620475,139.7063363,-
222261,電気機器卸売,アノト・マクセル（株）,東京都渋谷区渋谷１－８－１　第３西青山ビル７階,35.6604459,139.7054262,-
209221,新聞・出版,（有）コンデナスト・パブリケーションズ・ジャパン,東京都渋谷区渋谷２－１１－８　大管ビルディング３階,35.6596565,139.7068138,-
4820,その他卸売,ミクロナス・ジャパン（株）,東京都渋谷区渋谷２－１２－１５　日本薬学会長井記念館７階,35.6588019,139.7078112,-
100725,精密機器,メレスグリオ（株）,東京都渋谷区渋谷２－１２－１９　東建インターナショナルビル７階,35.6586738,139.707492,-
392545,情報・システム・ソフト,アイファイジャパン（株）,東京都渋谷区渋谷２－１２－１９　東建インターナショナルビル８階,35.6586738,139.707492,-
224450,食料品卸売,カステルジャパン（株）,東京都渋谷区渋谷２－１２－９　エスティ青山ビル８階,35.658821,139.7083498,-
220106,他小売,アマゾン　ジャパン（株）,東京都渋谷区渋谷２－１５－１,35.6587709,139.7053308,-
224490,他サービス,マザージャパン（株）,東京都渋谷区渋谷２－１５－１　渋谷クロスタワー１３階,35.6587806,139.705258,-
9910,化学卸売,ピーピージー・ジャパン（株）,東京都渋谷区渋谷２－１５－１　渋谷クロスタワー２２階,35.6587806,139.705258,-
381242,情報・システム・ソフト,イングリッシュタウン（株）,東京都渋谷区渋谷２－１５－１　渋谷クロスタワー２７階,35.6587806,139.705258,-
220181,人材派遣・業務請負,ロバート・ウォルターズ・ジャパン（株）,東京都渋谷区渋谷３－１２－１８　渋谷南東急ビル１４階,35.6562323,139.7060558,-
208062,電気機器卸売,ビシェイ　ジャパン（株）,東京都渋谷区渋谷３－１２－２２　渋谷プレステージ４階,35.656391,139.7057367,-
209407,輸送機器,イナジー・オートモーティブ・システムズ（株）,東京都渋谷区渋谷３－１９－１　渋谷オミビル４階,35.6577089,139.7026767,-
210139,情報・システム・ソフト,ネットレイティングス（株）,東京都渋谷区渋谷３－２５－１８　渋谷ガーデンフロント９階,35.6554225,139.7053787,-
222379,他サービス,ティーシス・ジャパン（株）,東京都渋谷区渋谷３－２７－１１　祐真ビル本館,35.6556677,139.7047394,-
12650,機械,ボッシュ・レックスロス（株）,東京都渋谷区渋谷３－６－７,35.6578609,139.705883,-
202754,機械,ボッシュパッケージングテクノロジー（株）,東京都渋谷区渋谷３－６－７,35.6578609,139.705883,-
209291,輸送機器,ボッシュ（株）,東京都渋谷区渋谷３－６－７,35.6578609,139.705883,-
1830,食料品,日本コカ・コーラ（株）,東京都渋谷区渋谷４－６－３,35.6582851,139.7122993,-
104207,食料品,（株）コカ・コーラ　東京研究開発センター,東京都渋谷区渋谷４－６－３,35.6582851,139.7122993,-
210095,電気機器卸売,コネクサント・システムズ（株）,東京都渋谷区初台１－４６－３　シモモトビル,35.6815271,139.6883456,-
220918,建設,ロッテ建設（日本支社）,東京都渋谷区初台１－５１－１　初台センタービル,35.6809232,139.686531,-
222031,その他卸売,イコパル・ジャパン,東京都渋谷区上原１－２０－１　尾崎ビル３階,35.6681944,139.6831114,-
410037,他小売,ホーム・スキノベーションズ・ジャパン（株）,東京都渋谷区上原１－３２－１９－４０５,35.6690972,139.6805437,-
392825,他サービス,（株）ガイアワークス,東京都渋谷区上原３－４３－１　ペアシティアネックス３階,35.6680475,139.6788972,-
380928,精密機器卸売,オーバスネイチメディカル（株）,東京都渋谷区上原３－６－１１　代々木上原ペアシティ１階,35.667991,139.6793729,-
209050,その他卸売,（株）コロンビアスポーツウェアジャパン,東京都渋谷区神宮前１－３－１０　コロンブスビル９階,35.6730663,139.7075268,-
209131,情報・システム・ソフト,ゲッティ　イメージズ　ジャパン（株）,東京都渋谷区神宮前１－３－１２　ジブラルタ生命原宿ビル２階,35.6726602,139.707771,-
403480,情報・システム・ソフト,ゲッティ・イメージズ・セールス・ジャパン合同会社,東京都渋谷区神宮前１－３－１２　ジブラルタ生命原宿ビル２階,35.6726602,139.707771,-
403481,情報・システム・ソフト,ゲッティ・イメージズ・デヴコ・ジャパン合同会社,東京都渋谷区神宮前１－３－１２　ジブラルタ生命原宿ビル２階,35.6726602,139.707771,-
392641,他サービス,ロゼッタストーン・ジャパン（株）,東京都渋谷区神宮前１－４－１６　神宮前Ｍ－ＳＱＵＡＲＥ,35.6721388,139.7078161,-
360094,他サービス,（株）ムーランサールジャパン,東京都渋谷区神宮前２－１２－２,35.6741149,139.7123571,-
208938,飲食・外食,スターバックス　コーヒー　ジャパン（株）,東京都渋谷区神宮前２－２２－１６,35.6750169,139.7102002,-
204421,食料品卸売,ピュラトスジャパン（株）,東京都渋谷区神宮前２－２－２２,35.6726191,139.7138456,-
220520,通信・放送,ＭＴＶ　Ｎｅｔｗｏｒｋｓ　Ｊａｐａｎ合同会社,東京都渋谷区神宮前２－８－２,35.6734043,139.7122678,-
403341,通信・放送,ＭＴＶ　Ｎｅｔｗｏｒｋｓ　Ｊａｐａｎ（株）,東京都渋谷区神宮前２－８－２,35.6734043,139.7122678,-
410303,情報・システム・ソフト,インフラジスティックス・ジャパン（株）,東京都渋谷区神宮前３－２５－１２　パシフィックスクエア原宿３階,35.6713425,139.7079074,-
209554,その他卸売,ボダムジャパン（株）,東京都渋谷区神宮前３－２５－１２　不二ビルディング原宿４階,35.67138,139.7078851,-
222188,化学卸売,ピエール　ファーブル　デルモ・コスメティック　ジャポン（株）,東京都渋谷区神宮前３－３５－１６,35.6723518,139.711927,-
100099,専門店,ローラ　アシュレイ　ジャパン（株）,東京都渋谷区神宮前３－３５－８　ハニービル青山２階,35.6718679,139.7123993,-
100881,繊維・衣服卸売,ベネトンジャパン（株）,東京都渋谷区神宮前４－３－１０,35.6665191,139.7103648,-
380937,広告,（株）サーチアンドサーチ・ファロン,東京都渋谷区神宮前４－９－３,35.6676634,139.7111252,-
420085,生命保険,ソニーライフ・エイゴン生命保険（株）,東京都渋谷区神宮前５－５２－２　青山オーバルビル,35.6626927,139.7089321,-
208627,その他卸売,イメーション（株）,東京都渋谷区神宮前５－５２－２　青山オーバルビル１１階,35.6626927,139.7089321,-
204594,広告,（株）中国電視,東京都渋谷区神宮前６－１８－５　鷹羽ビル２階,35.6643768,139.7028096,-
403315,その他卸売,ＢＲＩＴＡ　Ｊａｐａｎ（株）,東京都渋谷区神宮前６－１９－２０　第１５荒井ビル７階,35.6639547,139.7025345,-
104421,通信・放送,ＦＯＸインターナショナル・チャンネルズ（株）,東京都渋谷区神宮前６－２５－１４　神宮前メディアスクエア６階,35.6657277,139.7028245,-
220462,食料品卸売,キリンＭＣダノンウォーターズ（株）,東京都渋谷区神宮前６－２６－１　キリン原宿本社ビル,35.6668742,139.7024733,-
209282,コンサルティング,（株）ベリタスインターナショナル,東京都渋谷区神山町１７－２,35.6644177,139.6931978,-
202071,化学卸売,ダイロンジャパン（株）,東京都渋谷区神泉町２０－１５,35.656176,139.6919068,-
381360,精密機器卸売,日本テレガートナー（株）,東京都渋谷区神泉町２１－３　渋谷ＹＴビル０２－５階,35.6555742,139.6918753,-
224424,コンサルティング,アイ・ジィー・ビィー・ネットワーク（株）,東京都渋谷区西原３－３７－６,35.670814,139.6802203,-
200902,その他卸売,日本ベルックス（株）,東京都渋谷区千駄ヶ谷１－２３－１４　ベニーリーフビル,35.6794861,139.7087562,-
208311,その他卸売,クレストラ（株）,東京都渋谷区千駄ヶ谷３－５３－３　ＹＦＬ３・４階,35.6741659,139.7057566,-
392516,電気機器卸売,ソリッド・ステート・ロジック・ジャパン（株）,東京都渋谷区千駄ヶ谷３－５５－１４,35.6752643,139.7052779,-
392791,コンサルティング,ロベンダル・マサイ（株）,東京都渋谷区千駄ヶ谷４－１６－７　北参道ＤＴビル５階,35.6799124,139.7069882,-
200440,医薬品,グラクソ・スミスクライン（株）,東京都渋谷区千駄ヶ谷４－６－１５　ＧＳＫビル,35.6799914,139.7051374,-
210225,輸送機器,（株）ヴァレオジャパン,東京都渋谷区千駄ヶ谷５－２３－１３　南新宿星野ビル,35.6842212,139.7037021,-
204060,その他卸売,アンタリス・ジャパン（株）,東京都渋谷区千駄ヶ谷５－２６－５　代々木シティホームズ３０１,35.685176,139.7032234,-
224607,機械卸売,ライフ・フィットネス・ジャパン（株）,東京都渋谷区千駄ヶ谷５－２７－７　日本ブランズウィックビル８階,35.6862198,139.7029315,-
104205,専門店,ギャップジャパン（株）,東京都渋谷区千駄ヶ谷５－３２－１０,35.6866889,139.7034461,-
403242,他サービス,ヨンカーズ　トランスレーション　アンド　エンジニアリング（株）,東京都渋谷区千駄ヶ谷５－８－４　第７瑞穂ビル３階,35.6818206,139.705179,-
402899,スーパー,イータリージャパン（株）,東京都渋谷区代官山町２０－２３,35.6483033,139.7023857,-
208204,情報・システム・ソフト,ジャパンシステム（株）,東京都渋谷区代々木１－２２－１　代々木１丁目ビル,35.6811115,139.7020271,-
360062,食料品,ヒーシュタントジャパン（株）,東京都渋谷区代々木１－５８－５　代々木吉野ビル２階,35.6846544,139.70081,-
222304,輸送用機器卸売,大林自動車工業（株）（東京事務所）,東京都渋谷区代々木１－５８－７－７０４,35.6845369,139.7005896,-
202070,他サービス,コピーライツ　アジア（株）,東京都渋谷区代々木１－６－１２　ＭＦビル３階,35.681474,139.6983369,-
220248,食料品卸売,韓国農協インターナショナル（株）,東京都渋谷区代々木２－１０－１２　ＪＡ南新宿ビル８階,35.6879842,139.6981657,-
208007,電気機器卸売,ＥＭＣジャパン（株）,東京都渋谷区代々木２－１－１　新宿マインズタワー,35.6865412,139.6988507,-
210326,情報・システム・ソフト,トレンドマイクロ（株）,東京都渋谷区代々木２－１－１　新宿マインズタワー,35.6865412,139.6988507,-
5120,他サービス,（株）ジャパン・カンター・リサーチ,東京都渋谷区代々木２－１－１　新宿マインズタワー６階／７階,35.6866193,139.6988754,-
222302,電気機器卸売,（株）ディ・ディ・エス,東京都渋谷区代々木２－２０－２　美和プラザ新宿５階,35.6864418,139.6971402,-
209160,通信・放送,ベライゾンジャパン合同会社,東京都渋谷区代々木２－２－１　小田急サザンタワー８階,35.6864001,139.700471,-
220100,情報・システム・ソフト,シーメンスインダストリーソフトウェア（株）,東京都渋谷区代々木２－２－１　小田急サザンタワー９階,35.6864001,139.700471,-
410350,不動産,信義房屋不動産（株）,東京都渋谷区代々木２－７－１　昇立ビル２階,35.6872709,139.699679,-
9760,医薬品,ファイザー（株）,東京都渋谷区代々木３－２２－７　新宿文化クイントビル,35.6863313,139.6951259,-
200095,電気機器卸売,ウエスタンデジタルジャパン（株）,東京都渋谷区代々木３－２５－３　あいおいニッセイ同和損保新宿ビル１３階,35.684709,139.6923357,-
360122,情報・システム・ソフト,マジックソフトウェア・ジャパン（株）,東京都渋谷区代々木３－２５－３　あいおいニッセイ同和損保新宿ビル１４階,35.684709,139.6923357,-
209254,他製造業,マーカーフォルクル　ジャパン（株）,東京都渋谷区代々木３－２８－６　ＣＯＩ西参道ビル,35.6834915,139.6918952,-
208929,その他卸売,（株）ケイツージャパン,東京都渋谷区代々木３－２８－６　ＣＯＩ西参道ビルＡ棟,35.6834915,139.6918952,-
220268,情報・システム・ソフト,ＣＤＣ　Ｓｏｆｔｗａｒｅ　ジャパン（株）,東京都渋谷区東１－２６－３０　渋谷イーストビル６階,35.655679,139.7073125,-
203011,その他卸売,（株）ネリー　ロディ・ジャポン,東京都渋谷区東１－３－１　常盤松ロイヤルハイツ４０７,35.657614,139.708239,-
200582,精密機器卸売,日本フィジカルアコースティクス（株）,東京都渋谷区東２－１７－１０　岡本ＬＫビル８階,35.652507,139.7091477,-
222272,その他卸売,ブリオジャパン（株）,東京都渋谷区東３－１２－１３　ベリータ８階,35.6501372,139.7103393,-
403025,その他卸売,ＧＯＬＦＺＯＮ　Ｊａｐａｎ（株）,東京都渋谷区東３－１３－１１　フロンティア恵比寿Ｂ１階,35.6505646,139.7100025,-
222312,食料品卸売,バカルディ　ジャパン（株）,東京都渋谷区東３－１３－１１　フロンティア恵比寿ビル２階,35.6505646,139.7100025,-
224444,食料品,バロン・フィリップ・ド・ロスシルド　オリエント代表事務所,東京都渋谷区東３－１４－１６　ＫＨＯビル７階,35.6513159,139.7093073,-
222101,コンサルティング,シーディエス（株）,東京都渋谷区東３－１４－２０　ニューホライズンエビス,35.6512311,139.7097661,-
210131,情報・システム・ソフト,モンタビスタソフトウエアジャパン（株）,東京都渋谷区東３－１６－３　エフ・ニッセイ恵比寿ビル７階,35.6495783,139.7102049,-
410063,他サービス,ジャパン・マーケット・リソース・ネットワーク（株）,東京都渋谷区東３－１９－１０　恵比寿ＭＪビル３階,35.6502827,139.7092574,-
222282,航空,ヴァージン　アトランティック航空（日本支社）,東京都渋谷区東３－９－１９　ポーラ恵比寿ビル６階,35.6494529,139.7113221,-
224089,他小売,サムソナイト・ジャパン（株）,東京都渋谷区東３－９－１９　ポーラ恵比寿ビル８階,35.6494529,139.7113221,-
220621,情報・システム・ソフト,（株）フォーディー・ジャパン,東京都渋谷区道玄坂１－１０－２　渋谷ＴＨビル６階,35.6573767,139.6989951,-
360118,情報・システム・ソフト,グレースノート（株）,東京都渋谷区道玄坂１－１０－５　渋谷プレイス８階,35.6570822,139.6991546,-
220298,情報・システム・ソフト,ウェブセンス・ジャパン（株）,東京都渋谷区道玄坂１－１２－１　渋谷マークシティＷ２２階,35.6581085,139.6986263,-
209139,情報・システム・ソフト,マカフィー（株）,東京都渋谷区道玄坂１－１２－１　渋谷マークシティウェスト２０階,35.6581085,139.6986263,-
203081,他製造業,（株）ポラリス・ジャパン,東京都渋谷区道玄坂１－１３－５　鈴基本館ビル２階,35.657382,139.6986959,-
410306,情報・システム・ソフト,（株）ＵＩＥジャパン,東京都渋谷区道玄坂１－２０－８　寿パークビル８階,35.6566777,139.6963624,-
392718,情報・システム・ソフト,ブルースクレイ・ジャパン（株）,東京都渋谷区道玄坂１－９－１１　寿道玄坂ビル７階,,,-
402998,情報・システム・ソフト,Ｍｅｌｔｗａｔｅｒ　Ｎｅｗｓ　Ｊａｐａｎ１（株）,東京都渋谷区道玄坂２－２５－１２　道玄坂カブトビル６階,35.6601232,139.6973486,-
403426,他サービス,（株）シー・シー・コンサルティング,東京都渋谷区南平台町１－１０　ＣＯＩ南平台ビル２階,35.6557545,139.6971048,-
200737,情報・システム・ソフト,日本インターグラフ（株）,東京都渋谷区南平台町１－５　フレックス土井ビル３階,35.6556692,139.6970206,-
381277,繊維・衣服,（株）ＺＩＰＩＡ,東京都渋谷区南平台町１６－２８　グラスシティ渋谷８階,35.6549049,139.6949281,-
403089,他サービス,（株）日浩キングスメン,東京都渋谷区幡ヶ谷１－１－２　朝日生命幡ヶ谷ビル９階,35.6774338,139.6784757,-
403090,他サービス,（株）キングスメン　プロジェクツ　ジャパン,東京都渋谷区幡ヶ谷１－１－２　朝日生命幡ヶ谷ビル９階,35.6774338,139.6784757,-
403091,建築設計,（株）キングスメン　アーキテクツ　アンド　デザイン,東京都渋谷区幡ヶ谷１－１－２　朝日生命幡ヶ谷ビル９階,35.6774338,139.6784757,-
222040,機械卸売,（株）ＨＡＬＴＯＮ,東京都渋谷区幡ヶ谷１－２０－１１　幡ヶ谷ＡＲＴ－２　２階,35.6748995,139.673332,-
403000,電気機器卸売,コンシリアム・ニッタンマリーン（株）,東京都渋谷区幡ヶ谷１－２１－７,35.6745149,139.6731784,-
204117,精密機器卸売,マーケム・イマージュ（株）,東京都渋谷区幡ヶ谷２－１９－７,35.6772707,139.67397,-
209419,その他卸売,テルモ・ビーエスエヌ（株）,東京都渋谷区幡ヶ谷２－４４－１,35.679133,139.6757044,-
402943,医薬品卸売,ウルトラデントジャパン（株）,東京都渋谷区本町１－７－５　初台村上ビル４階,35.680232,139.6840984,-
410433,他製造業,（株）アデランス,東京都新宿区荒木町１３－４　住友不動産四谷ビル,35.690023,139.7237713,-
403404,旅行,（有）ジー・エム・トラベル,東京都新宿区荒木町１８－７　四谷長岡ビル４階,35.691589,139.7235419,-
224502,機械卸売,セラック・ジャパン,東京都新宿区荒木町２３－１５　アケボノ大鉄ビル６階,35.6917484,139.7231129,-
392749,情報・システム・ソフト,ハイミン・エンタープライズ（株）,東京都新宿区荒木町５　ＳＥＩビル四谷２階,35.689486,139.723906,-
410384,電気機器,東亜ディーケーケー（株）,東京都新宿区高田馬場１－２９－１０,35.7113117,139.7042976,-
2790,化学,エコラボ（株）,東京都新宿区高田馬場１－３１－１８,35.7096386,139.7031225,-
222303,他サービス,（株）大悟,東京都新宿区高田馬場４－２８－１９　きりしまビル５階,35.7120493,139.6991844,-
209350,新聞・出版,（株）オライリー・ジャパン,東京都新宿区坂町２６－２７　インテリジェントプラザビル１階,35.6910942,139.7272432,-
410323,その他卸売,（株）アクロス,東京都新宿区三栄町１８－７　四谷ＭＳビル４階,35.687881,139.7252678,-
381127,電気機器,ハッチンソン・テクノロジー・ジャパン・リミテッド（登記社名　ハッチンソン・テクノロジー・ジャパン合同会社）,東京都新宿区四谷１－１９－２　四谷セントラルビル４階,35.6866422,139.7281212,-
392595,情報・システム・ソフト,シムパックジャパン（株）,東京都新宿区四谷２－４－１２　大久保ビル５階,35.6866516,139.7263051,-
204570,機械卸売,シーエムイーシージャパン（株）,東京都新宿区四谷２－８　岡本ビル２０４,35.6869153,139.7254075,-
220818,情報・システム・ソフト,（株）フイズ,東京都新宿区四谷４－１３－１７　ワークスナカノ３階,35.6890353,139.7176062,-
100243,総合卸売,広東国際経済貿易（株）,東京都新宿区四谷４－２９－１２　広東国際ビル,35.6882049,139.7144922,-
201283,精密機器卸売,レニショー（株）,東京都新宿区四谷４－２９－８　レニショービル,35.6880218,139.7142346,-
224414,情報・システム・ソフト,モラヴィア　アイ・ティ　エーエス（東京事務所）,東京都新宿区四谷４－３－２９　伸治ビル５階,35.6879674,139.7174466,-
210138,情報・システム・ソフト,ネットアイキュー（株）,東京都新宿区市ヶ谷本村町１－１　住友市ヶ谷ビル１２階,35.6911782,139.7329903,-
203009,新聞・出版,ＮＰＧ　ネイチャーアジア・パシフィック（登記社名　ネイチャー・ジャパン（株））,東京都新宿区市谷田町２－３７　千代田ビル,35.6947107,139.7369264,-
220163,新聞・出版,（株）マクミランランゲージハウス,東京都新宿区市谷田町２－３７　千代田ビル,35.6947107,139.7369264,-
380986,電気機器卸売,Ｅ＆Ｅ　Ｊａｐａｎ（株）,東京都新宿区市谷田町２－７－１５　近代科学社ビル７階,35.694744,139.7375618,-
205110,情報・システム・ソフト,ノベル（株）,東京都新宿区市谷本村町１－１　住友市ヶ谷ビル１２階,35.6911782,139.7329903,-
201035,化学卸売,ビックケミー・ジャパン（株）,東京都新宿区市谷本村町３－２９　ＦＯＲＥＣＡＳＴ市ヶ谷６階,35.6910897,139.7325912,-
392563,情報・システム・ソフト,インジーニアス・イノベーション（株）,東京都新宿区上落合３－８－２５　ＦＬＡＭＰ１００３,35.7107369,139.6843412,-
208935,機械卸売,ＣＭＩＣ燕明（株）,東京都新宿区信濃町１２　信濃町ＳＡＮＭＯビル６階,35.6840734,139.72016,-
103162,損害保険,チューリッヒ・インシュアランス・カンパニー・リミテッド（日本支店）,東京都新宿区信濃町３５　信濃町煉瓦館,35.6812806,139.7191424,-
104417,生命保険,チューリッヒ・ライフ・インシュアランス・カンパニー・リミテッド（日本支店）,東京都新宿区信濃町３５　信濃町煉瓦館,35.6812806,139.7191424,-
207191,繊維・衣服,ヘインズブランズ　ジャパン（株）,東京都新宿区信濃町３５　信濃町煉瓦館３階,35.6812806,139.7191424,-
201208,広告,エム・エム・エス・コミュニケーションズ（株）,東京都新宿区信濃町３５　信濃町煉瓦館４階,35.6812806,139.7191424,-
222371,食料品卸売,グラシオアイスクリームジャパン（株）,東京都新宿区新宿１－１５－２　千寿ビル４階,35.6900508,139.710584,-
224451,銀行,ＣＩＣ銀行（日本代表事務所）,東京都新宿区新宿１－１９－１０　サンモールクレスト３０１,35.6895562,139.7128781,-
410046,情報・システム・ソフト,Ｓｅｃｗａｒｄジャパン（株）,東京都新宿区新宿１－２７－２　ルミエール御苑８階,35.6906838,139.7138556,-
410190,繊維・衣服,（株）フェニックス,東京都新宿区新宿２－５－１２　ＦＯＲＥＣＡＳＴ新宿ＡＶＥＮＵＥ,35.6894238,139.7073723,-
222007,精密機器卸売,アクシスコミュニケーションズ（株）,東京都新宿区新宿２－５－１２　ＦＯＲＥＣＡＳＴ新宿ＡＶＥＮＵＥ４階,35.6894238,139.7073723,-
224200,コンサルティング,ＦＴＩコンサルティング（日本支社）,東京都新宿区新宿３－１－２４　京王新宿三丁目ビル６階,35.6901997,139.7053776,-
402979,旅行,（株）オクトパストラベル・ジャパン,東京都新宿区新宿３－１３－５　クリハシビル９階,35.6921028,139.7058763,-
220960,旅行,（株）ビコ,東京都新宿区新宿４－２－１８　新宿光風ビルディング３階,35.6893389,139.7035027,-
208959,電気機器卸売,マクソンジャパン（株）,東京都新宿区新宿５－１－１５,35.6927843,139.7125799,-
403290,電気機器卸売,カナディアン・ソーラー・ジャパン（株）,東京都新宿区新宿５－１７　ラウンドクロス新宿５丁目８階,35.6931781,139.7058763,-
209076,情報・システム・ソフト,チェック・ポイント・ソフトウェア・テクノロジーズ（株）,東京都新宿区新宿５－５－３　建成新宿ビル６階,35.6919551,139.7099257,-
203130,電気機器,ジック（株）,東京都新宿区新宿５－８－８,35.6926721,139.7090001,-
209849,機械卸売,（株）レッチェ,東京都新宿区新宿５－８－８,35.6926721,139.7090001,-
204569,精密機器卸売,ヴァイサラ（株）,東京都新宿区神楽坂６－４２　神楽坂喜多川ビル２階,35.7035818,139.7350857,-
229038,石油・燃料卸売,（株）ダイヤ昭石,東京都新宿区西五軒町１３－１　住友不動産飯田橋ビル３号館３階,35.7082181,139.7376602,-
210080,医薬品,ガルデルマ（株）,東京都新宿区西五軒町１３－１　住友不動産飯田橋ビル３号館９階,35.7082181,139.7376602,-
208488,精密機器卸売,ボストン・サイエンティフィック　ジャパン（株）,東京都新宿区西新宿１－１４－１１　日廣ビル,35.6888562,139.6966815,-
220456,情報・システム・ソフト,コンソナ・ジャパン（株）,東京都新宿区西新宿１－２２－１５　グラフィオ西新宿９階,35.6890718,139.6961032,-
10900,ガラス・土石,信越石英（株）,東京都新宿区西新宿１－２２－２　新宿サンエービル１２階,35.6887629,139.6960034,-
392743,輸送用機器卸売,エバースペッシャー・インターナショナルＧｍｂＨ（日本支社）,東京都新宿区西新宿１－２２－２　新宿サンエービル１３階,35.6887629,139.6960034,-
381310,医薬品,アリーア　メディカル（株）,東京都新宿区西新宿１－２４－１　エステック情報ビル１８階,35.6902759,139.6958439,-
208157,損害保険,ニューインディア保険会社（日本支社）,東京都新宿区西新宿１－２４－１　エステック情報ビル２２階,35.6902759,139.6958439,-
202605,非鉄金属,アルダ・メタル・パッケージング・ジャパン（株）,東京都新宿区西新宿１－２４－１　エステック情報ビル３階,35.6902759,139.6958439,-
403061,他サービス,マーベルジャパン（株）,東京都新宿区西新宿１－２５－１　新宿センタービル４４階,35.69195,139.6954224,-
220842,情報・システム・ソフト,東京スポットイマージュ（株）,東京都新宿区西新宿１－２６－２　新宿野村ビル１４階,35.6929509,139.6953653,-
100044,他サービス,リード　エグジビション　ジャパン（株）,東京都新宿区西新宿１－２６－２　新宿野村ビル１８階,35.6929509,139.6953653,-
208014,輸送用機器卸売,日本デルファイ・オートモーティブ・システムズ（株）,東京都新宿区西新宿１－２６－２　新宿野村ビル３１階,35.6929509,139.6953653,-
360144,情報・システム・ソフト,日本ティブコソフトウェア（株）,東京都新宿区西新宿１－２６－２　新宿野村ビル３１階,35.6929509,139.6953653,-
360105,不動産,サーブコープ　ジャパン（株）,東京都新宿区西新宿１－２６－２　新宿野村ビル３２階,35.6929509,139.6953653,-
410410,情報・システム・ソフト,Ｅｂｉｘ社（東京支社）（登記社名　ＥＢＩＸ　ＳＩＮＧＡＰＯＲＥ　ＰＴＥ　ＬＴＤ．）,東京都新宿区西新宿１－２６－２　新宿野村ビル３２階,35.6929509,139.6953653,-
403251,医薬品,あすかＡｃｔａｖｉｓ製薬（株）,東京都新宿区西新宿１－２６－２　新宿野村ビル４１階,35.6929509,139.6953653,-
101130,食料品,キリン・トロピカーナ（株）,東京都新宿区西新宿１－６－１　新宿エルタワー６階,35.6922806,139.6974213,-
375,生命保険,アフラック（アメリカンファミリー生命保険会社）,東京都新宿区西新宿２－１－１　新宿三井ビル,35.6919097,139.6939012,-
224588,コンサルティング,プライスウォーターハウスクーパースＰＲＴＭマネジメントコンサルタンツジャパンＬＬＣ,東京都新宿区西新宿２－１－１　新宿三井ビル３０階,35.6919097,139.6939012,-
2100,化学,ダイセル・エボニック（株）,東京都新宿区西新宿２－３－１　新宿モノリス１２階,35.6886159,139.6945675,-
2290,化学,エボニック　デグサ　ジャパン（株）,東京都新宿区西新宿２－３－１　新宿モノリス１２階,35.6886159,139.6945675,-
420097,化学,エボニック　モノシラン　ジャパン（株）,東京都新宿区西新宿２－３－１　新宿モノリス１２階,35.6886159,139.6945675,-
222159,化学,日本アエロジル（株）,東京都新宿区西新宿２－３－１　新宿モノリス１３階,35.6886159,139.6945675,-
209503,生命保険,アフラック保険サービス（株）,東京都新宿区西新宿２－３－１　新宿モノリス２２階,35.6886159,139.6945675,-
222025,電気機器卸売,イージェネラ（株）,東京都新宿区西新宿２－４－１　新宿ＮＳビル６階,35.6879841,139.6935305,-
224615,食料品卸売,シャクリー・グローバル・グループ（株）,東京都新宿区西新宿２－６－１,35.6912129,139.6923608,-
229126,食料品,日本シャクリー（株）,東京都新宿区西新宿２－６－１　新宿住友ビル２１階,35.6913514,139.6928126,-
403077,情報・システム・ソフト,ハイソフトジャパン（株）,東京都新宿区西新宿２－６－１　新宿住友ビル２２階,35.6913514,139.6928126,-
7620,電気機器,日本メルセン（株）,東京都新宿区西新宿２－７－１　小田急第一生命ビル３階,35.6915156,139.6913635,-
402967,化学卸売,シェファードカラージャパンインク,東京都新宿区西新宿２－７－１　小田急第一生命ビル４階,35.6915156,139.6913635,-
360143,精密機器卸売,（株）ＩＭＪ,東京都新宿区西新宿３－１－５　新宿嘉泉ビル８階,35.6872661,139.6946872,-
210291,食料品卸売,韓国ロッテ製菓（東京事務所）,東京都新宿区西新宿３－２０－１　ロッテ本社ビル５階,35.6839269,139.6861123,-
240,食料品,味の素ゼネラルフーヅ（株）,東京都新宿区西新宿３－２０－２　東京オペラシティ,35.682955,139.6867214,-
840,化学,エイボン・プロダクツ（株）,東京都新宿区西新宿３－２０－２　東京オペラシティータワー３０階,35.682955,139.6867214,-
209699,電気機器卸売,ジュニパーネットワークス（株）,東京都新宿区西新宿３－２０－２　東京オペラシティータワー４５階,35.682955,139.6867214,-
200797,医薬品,サノフィ・アベンティス（株）,東京都新宿区西新宿３－２０－２　東京オペラシティタワー,35.682955,139.6867214,-
209244,医薬品,サノフィパスツール（株）,東京都新宿区西新宿３－２０－２　東京オペラシティタワー,35.682955,139.6867214,-
420177,電気機器卸売,Ａｐｐｌｅ　Ｊａｐａｎ合同会社,東京都新宿区西新宿３－２０－２　東京オペラシティタワー,35.682955,139.6867214,-
200092,コンサルティング,マーサー　ジャパン（株）,東京都新宿区西新宿３－２０－２　東京オペラシティタワー３７階,35.682955,139.6867214,-
201167,損害保険,マーシュ　ジャパン（株）,東京都新宿区西新宿３－２０－２　東京オペラシティタワー３８階,35.682955,139.6867214,-
222223,その他卸売,マーシュブローカージャパン（株）,東京都新宿区西新宿３－２０－２　東京オペラシティタワー３８階,35.682955,139.6867214,-
209146,医薬品,メリアル・ジャパン（株）,東京都新宿区西新宿３－２０－２　東京オペラシティタワー４２階,35.682955,139.6867214,-
210235,情報・システム・ソフト,プラットフォームコンピューティング（株）,東京都新宿区西新宿３－２－１１　新宿三井ビルディング二号館１０階,35.6864617,139.6931317,-
201120,化学卸売,ヘルムヤーパン（株）,東京都新宿区西新宿３－２－１１　新宿三井ビル二号館３階,35.6863763,139.6931718,-
360066,電気機器卸売,サンテックパワージャパン（株）,東京都新宿区西新宿３－６－１１　西新宿ＫＳビル６階,35.686633,139.6912021,-
392459,その他卸売,ジェプセンジャパン（株）,東京都新宿区西新宿３－６－５　トーカン新宿６階,35.6864313,139.6913169,-
6240,化学卸売,日本ロレアル（株）,東京都新宿区西新宿３－７－１　新宿パークタワー,35.6854269,139.6908388,-
402863,情報・システム・ソフト,アトス（株）,東京都新宿区西新宿３－７－１　新宿パークタワー２０階,35.6854269,139.6908388,-
420069,医薬品卸売,シャイアー・ジャパン（株）,東京都新宿区西新宿３－７－１　新宿パークタワーＮ３０階,35.6854269,139.6908388,-
209324,情報・システム・ソフト,ローソンソフトウエア　ジャパン（株）,東京都新宿区西新宿３－７－１　新宿パークタワーＳ３５階,35.6854269,139.6908388,-
209495,情報・システム・ソフト,日本インフォア・グローバル・ソリューションズ（株）,東京都新宿区西新宿３－７－１　新宿パークタワーＳ３５階,35.6854269,139.6908388,-
220591,新聞・出版,ロック音楽出版（株）,東京都新宿区西新宿３－９－３　第三梅村ビル８０３,35.684783,139.6900097,-
220592,その他卸売,ロックレコード（株）,東京都新宿区西新宿３－９－３　第三梅村ビル８０３,35.684783,139.6900097,-
410018,他製造業,日本マイクロサーム（株）,東京都新宿区西新宿４－１５－７　パシフィックマークス新宿パークサイド,35.6889824,139.6883456,-
210160,情報・システム・ソフト,リアルネットワークス（株）,東京都新宿区西新宿４－３３－４　住友不動産西新宿ビル４号館１階,35.6866583,139.6889837,-
210190,他サービス,テュフズードジャパン（株）,東京都新宿区西新宿４－３３－４　住友不動産西新宿ビル４号館８階,35.6866583,139.6889837,-
220452,精密機器卸売,エドワーズライフサイエンス（株）,東京都新宿区西新宿６－１０－１　日土地西新宿ビル,35.6946036,139.6907536,-
222034,情報・システム・ソフト,インターシステムズジャパン（株）,東京都新宿区西新宿６－１０－１　日土地西新宿ビル１７階,35.6946036,139.6907536,-
103154,機械卸売,クノールブレムゼ鉄道システム　ジャパン（株）,東京都新宿区西新宿６－１０－１　日土地西新宿ビル７階,35.6946036,139.6907536,-
381026,情報・システム・ソフト,（株）シーディーネットワークス・ジャパン,東京都新宿区西新宿６－１０－１　日土地西新宿ビル８階,35.6946036,139.6907536,-
205097,電気機器卸売,ラティス　セミコンダクター（株）,東京都新宿区西新宿６－１４－１　新宿グリーンタワービル１４階,35.692318,139.689737,-
220097,情報・システム・ソフト,日本イーエスアイ（株）,東京都新宿区西新宿６－１４－１　新宿グリーンタワービル１６階,35.692318,139.689737,-
392924,電気機器,ジェイビル　ジャパン（株）,東京都新宿区西新宿６－１４－１　新宿グリーンタワービル１６階,35.692318,139.689737,-
381633,電気機器卸売,富士ゼロックス東京（株）,東京都新宿区西新宿６－１４－１　新宿グリーンタワービル２２～２７階,35.692318,139.689737,-
380962,電気機器卸売,日本ＩＳＳＩ（株）,東京都新宿区西新宿６－１６－６　タツミビル８階,35.6917166,139.6877474,-
403411,その他卸売,メンリッケヘルスケア（株）,東京都新宿区西新宿６－２０－７　コンシェリア西新宿タワーズ　ウェスト２階,35.6925176,139.6874171,-
220013,情報・システム・ソフト,日本オープンウェーブシステムズ（株）,東京都新宿区西新宿６－２２－１　新宿スクエアタワー１７階,35.6940275,139.6877011,-
203202,精密機器卸売,ジェイディーエスユー・ティーアンドエム（株）,東京都新宿区西新宿６－２２－１　新宿スクエアタワー７階,35.6940275,139.6877011,-
209115,精密機器,ジェイディーエス　ユニフェーズ（株）,東京都新宿区西新宿６－２２－１　新宿スクエアタワー７階,35.6940275,139.6877011,-
203235,電気機器卸売,日本エイサー（株）,東京都新宿区西新宿６－２４－１　西新宿ビルディング１８階,35.6949699,139.6889876,-
11980,電気機器,日本テキサス・インスツルメンツ（株）,東京都新宿区西新宿６－２４－１　西新宿三井ビル,35.6949699,139.6889834,-
225043,電気機器卸売,イクシアコミュニケーションズ（株）,東京都新宿区西新宿６－２４－１　西新宿三井ビル１１階,35.6949699,139.6889876,-
7820,精密機器,日本ポール（株）,東京都新宿区西新宿６－５－１,35.6931766,139.6931655,-
9690,鉄鋼・金属卸売,アルキャン・インターナショナル・ネットワーク・ジャパン（株）,東京都新宿区西新宿６－５－１　アイランドタワー７階,35.693132,139.693142,-
6580,飲食・外食,日本マクドナルドホールディングス（株）,東京都新宿区西新宿６－５－１　新宿アイランドタワー,35.693132,139.693142,-
220148,医薬品,ブリストル・マイヤーズ（株）,東京都新宿区西新宿６－５－１　新宿アイランドタワー,35.693132,139.693142,-
104422,その他卸売,ニュー　スキン　ジャパン（株）,東京都新宿区西新宿６－５－１　新宿アイランドタワー２３階,35.693132,139.693142,-
205106,電気機器卸売,日本アルテラ（株）,東京都新宿区西新宿６－５－１　新宿アイランドタワー３２階,35.693132,139.693142,-
200030,電気機器卸売,日本ＡＭＤ（株）（登記社名　日本エイ・エム・ディ（株））,東京都新宿区西新宿６－５－１　新宿アイランドタワー３４階,35.693132,139.693142,-
220536,飲食・外食,日本マクドナルド（株）,東京都新宿区西新宿６－５－１　新宿アイランドタワー３９階,35.693132,139.693142,-
208082,情報・システム・ソフト,エスコグラフィックス（株）,東京都新宿区西新宿６－５－１　新宿アイランドタワー７階,35.693132,139.693142,-
8430,ホテル,日本ヒルトン（株）,東京都新宿区西新宿６－６－２,35.692724,139.6912126,-
381192,他サービス,ヒルトン・リゾーツ・マーケティング・コーポレーション（東京支店）,東京都新宿区西新宿６－６－３　新宿国際ビル新館５階,35.6926041,139.6905791,-
207102,情報・システム・ソフト,ＰＴＣジャパン（株）,東京都新宿区西新宿６－８－１　新宿オークタワー,35.6939314,139.6905425,-
224517,電気機器卸売,イー・エフ・アイ（株）,東京都新宿区西新宿６－８－１　新宿オークタワー１４階,35.6939314,139.6905425,-
224580,情報・システム・ソフト,（株）日本コンバース,東京都新宿区西新宿６－８－１　新宿オークタワー９階,35.6939314,139.6905425,-
220571,情報・システム・ソフト,マンハッタン・アソシエイツ（株）,東京都新宿区西新宿７－１４－１２　富士勧業ビル４階,35.6950564,139.6972599,-
420165,情報・システム・ソフト,ジェイ・リスティング（株）,東京都新宿区西新宿７－２０－１　住友不動産西新宿ビル２４階,35.6942902,139.6958439,-
222253,電気機器卸売,ローデ・シュワルツ・ジャパン（株）,東京都新宿区西新宿７－２０－１　住友不動産西新宿ビル２７階,35.6942902,139.6958439,-
200948,その他卸売,レヨニヤー・ファー・イースト・リミテッド,東京都新宿区西新宿７－２２－４５　ＫＤＸ西新宿ビル,35.6952433,139.6955846,-
380984,その他卸売,ロタレックス・ジャパン（株）,東京都新宿区西新宿７－７－２６－３０２,35.6974554,139.6974242,-
222045,電気機器卸売,（株）ヴォルフビジョン,東京都新宿区西新宿８－１－１６　アドバンスビル２階,35.6945549,139.6942285,-
220156,機械,ベーヴェ　システック　ジャパン（株）,東京都新宿区西新宿８－１４－２４　西新宿ＫＦビル１階,35.6956226,139.6917842,-
208105,医薬品,ユーシービージャパン（株）,東京都新宿区西新宿８－１７－１　新宿グランドタワー,35.6960379,139.6903924,-
220750,化学,ロード・ファー・イースト・インコーポレイテッド（日本支社）,東京都新宿区西新宿８－４－２　野村不動産西新宿ビル８階,35.6945346,139.6933311,-
220993,情報・システム・ソフト,日本キスコ（株）,東京都新宿区西早稲田１－２２－２　西早稲田東ウィング２階,35.7117708,139.7181775,-
200165,他製造業,エムエスエイ　ジャパン（株）,東京都新宿区西早稲田３－３０－１６　ＨＯＲＩＺＯＮ．１ビル２階,35.713751,139.7113619,-
222338,他小売,（株）韓国広場,東京都新宿区大久保１－１２－１　第２韓国広場ビル,35.6984815,139.7036423,-
410398,食料品卸売,東遠ジャパン（株）,東京都新宿区大京町２３－３　四谷オーキッドビル１０階,35.6857719,139.7163094,-
403287,その他卸売,中国図書進出口（集団）総公司（日本駐在事務所）,東京都新宿区東五軒町６－２４　（株）トーハン本社８階,35.707983,139.7387258,-
1570,精密機器卸売,カールツァイス（株）,東京都新宿区本塩町２２,35.6889125,139.7297575,-
224535,精密機器卸売,カールツァイスメディテック（株）,東京都新宿区本塩町２２,35.6889125,139.7297575,-
200548,他製造業,カールツァイスビジョンジャパン（株）,東京都新宿区本塩町７,35.6895457,139.7296378,-
204571,ガラス・土石卸売,ショット日本（株）,東京都新宿区本塩町７,35.6895457,139.7296378,-
104405,その他卸売,アディダス　ジャパン（株）,東京都新宿区矢来町７７,35.7020696,139.7330118,-
392810,その他卸売,（株）ロア・インターナショナル,東京都新宿区余丁町１１－１　枝ビル２階,35.6964365,139.7151922,-
203272,貸金・信販・カード,アメリカン・エキスプレス・インターナショナル，Ｉｎｃ．（日本支社）,東京都杉並区荻窪４－３０－１６,35.7039478,139.6237293,-
380978,精密機器卸売,ジェー・エー・ウーラム・ジャパン（株）,東京都杉並区荻窪５－２２－９　藤ビル２階,35.7032163,139.6203264,-
202930,機械卸売,インタミン・ジャパン（株）,東京都杉並区荻窪５－２６－１３　荻窪ＴＭビル,35.7040153,139.6195098,-
392521,機械,ユネックス　コーポレイション（日本支店）,東京都杉並区高円寺南３－６２－６,35.7048183,139.6455381,-
403078,電気機器卸売,スイスビットジャパン（株）,東京都杉並区高円寺北２－１－２４　コア高円寺ビル３階,35.7057162,139.6542764,-
209341,その他卸売,シュメアザール（日本支社）,東京都杉並区松庵３－３９－８－３０６,35.7031155,139.5987151,-
210211,その他卸売,ヴェステック（株）,東京都杉並区成田西１－１－２８,35.6839128,139.6372492,-
202166,精密機器,日本エム・ケー・エス（株）,東京都杉並区成田東５－１７－１３　ハーモナイズビル,35.7017255,139.6294695,-
222164,機械卸売,日本シュネーベルガー（株）,東京都世田谷区下馬１－４９－１２　下馬ＭＩＹＡＧＡＷＡビル４階,35.6405637,139.6836996,-
200637,他小売,東京シェルパック（株）,東京都世田谷区喜多見５－２６－２７,35.6300663,139.6006209,-
104113,情報・システム・ソフト,日本シノプシス合同会社,東京都世田谷区玉川２－２１－１　二子玉川ライズ・オフィス１５階,35.61175,139.6282344,-
11570,化学,住友スリーエム（株）,東京都世田谷区玉川台２－３３－１,35.6253228,139.6275822,-
13300,化学,スリーエムヘルスケア（株）,東京都世田谷区玉川台２－３３－１,35.6253228,139.6275822,-
208690,その他卸売,クオバディス・ジャパン（株）,東京都世田谷区駒沢１－４－１５　真井ビル８階,35.6327572,139.6611126,-
202167,その他卸売,エムピーエスアイ　システムズ（株）,東京都世田谷区駒沢２－１１－１　集花園ビル３階,35.6323738,139.6592792,-
1580,機械卸売,カルピジャーニ・ジャパン（株）,東京都世田谷区三宿１－１３－１　東映三宿ビル５階,35.6471634,139.6767013,-
224564,精密機器卸売,（株）スリーディー・システムズ・ジャパン,東京都世田谷区三宿１－１３－１　東映三宿ビル６階,35.6471634,139.6767013,-
208047,電気機器卸売,シャフナー　イー・エム・シー（株）,東京都世田谷区上馬１－３２－１２　三井生命三軒茶屋ビル７階,35.6395804,139.6682287,-
204474,その他卸売,（株）スミス,東京都世田谷区上馬４－２３－１,35.6367386,139.6628057,-
201022,その他卸売,ジェイ・ヒューイット（株）,東京都世田谷区上馬４－２－７　上馬ノアビル１０階,35.6345084,139.6629264,-
208312,機械,日本ビー・エー・シー（株）,東京都世田谷区新町２－２７－４,35.6283813,139.6471768,-
209491,その他卸売,（株）ホンカ・ジャパン,東京都世田谷区瀬田５－２０　ハウジングプラザ瀬田内,35.6254183,139.6267252,-
220572,情報・システム・ソフト,ミラポイントジャパン（株）,東京都世田谷区太子堂１－１２－３９　三軒茶屋堀商ビル３階,35.6450972,139.6747275,-
209848,情報・システム・ソフト,レクシスネクシス・ジャパン（株）,東京都世田谷区太子堂４－１－１　キャロットタワー,35.6436933,139.669292,-
392511,他サービス,（株）ナノフィルムテクノロジーズ　ジャパン,東京都世田谷区東玉川２－６－７　丸善ビル２０１,35.5929446,139.6753854,-
104403,輸送用機器卸売,アウディ　ジャパン（株）,東京都世田谷区尾山台２－３０－８,35.6031792,139.6533118,-
220578,自動車販売,アウディジャパン販売（株）,東京都世田谷区尾山台３－７－５,35.6035007,139.6536785,-
204072,その他卸売,家有貿易（株）,東京都世田谷区北沢１－１９－１５　ｋ－１ハウス１０１,35.6645604,139.6736197,-
100737,他小売,ネイチャーケア・ジャパン（株）,東京都世田谷区北沢３－２－５,35.666467,139.6731235,-
1620,機械,キャタピラージャパン（株）,東京都世田谷区用賀４－１０－１,35.6266106,139.632378,-
8870,精密機器,日本コヴィディエン（株）,東京都世田谷区用賀４－１０－２,35.626509,139.6322567,-
104204,精密機器卸売,コヴィディエン　ジャパン（株）,東京都世田谷区用賀４－１０－２,35.626509,139.6322567,-
224568,化学卸売,ＩＭＥＲＹＳ　ＲＥＦＲＡＣＴＯＲＹ　ＭＩＮＥＲＡＬＳ　ＪＡＰＡＮ（株）,東京都世田谷区用賀４－１０－３　ＳＢＳヒルズ２Ｎｏ．４１,35.6265499,139.6317842,-
225126,化学卸売,トライバッハ　シュライフミテル　ジャパン（株）,東京都世田谷区用賀４－１０－３　ＳＢＳヒルズ２Ｎｏ．４１,35.6265499,139.6317842,-
100031,その他卸売,コーラー・カンパニー（日本事務所）,東京都世田谷区用賀４－１０－３　世田谷ビジネススクエア　ヒルズ２Ｎｏ．５３,35.6265896,139.6327848,-
380857,人材派遣・業務請負,クロックス　エイジア　プライベート　リミテッド（日本支店）,東京都世田谷区用賀４－１０－４　世田谷ビジネススクエアＨｉｌｌｓ３　５階,35.6265896,139.6327848,-
420100,その他卸売,クロックス・ジャパン合同会社,東京都世田谷区用賀４－１０－４　世田谷ビジネススクエアＨｉｌｌｓ３　５階,35.6265896,139.6327848,-
403208,輸送用機器卸売,（株）センサータ・テクノロジーズ　ジャパン,東京都世田谷区用賀４－１０－５　世田谷ビジネススクエアヒルズ４　４階,35.6271385,139.631164,-
220213,その他卸売,日本サブコール（株）,東京都世田谷区用賀４－４－７　福ビル５階,35.6261585,139.6334311,-
204547,他サービス,ウェアーハウザー・ジャパン（株）,東京都千代田区一ツ橋１－１－１　パレスサイドビル２階,35.6909195,139.7574614,-
209088,情報・システム・ソフト,トムソン・ロイター・プロフェッショナル（株）,東京都千代田区一ツ橋１－１－１　パレスサイドビル５階,35.6909195,139.7574614,-
205061,情報・システム・ソフト,インフォーマ　グローバル　マーケット　ジャパン（株）,東京都千代田区一ツ橋２－５－５,35.694597,139.7575741,-
403375,繊維・衣服卸売,ボルサリーノ　ジャパン（株）,東京都千代田区一番町１０　オーロラ本社ビル内５階,35.686839,139.740021,-
381019,情報・システム・ソフト,マイクロストラテジー・ジャパン（株）,東京都千代田区一番町１３－１　新半蔵門ビルディング２階,35.6869437,139.7415359,-
208407,総合卸売,宝和通商（株）,東京都千代田区一番町１５　宝和ビル,35.686309,139.73981,-
204212,その他卸売,アイリッシュ　ドレスデン　ジャパン（株）,東京都千代田区一番町１５－２０　一番町フェニックスビル６０１号,35.6863366,139.7400463,-
222153,情報・システム・ソフト,（株）Ｔｏｐ　Ｉｍａｇｅ　Ｓｙｓｔｅｍｓ　Ｊａｐａｎ,東京都千代田区一番町１５－２１　一番町コート５階,35.6864056,139.7399952,-
104227,情報・システム・ソフト,日本プログレス（株）,東京都千代田区一番町１８　川喜多メモリアルビル,35.6885702,139.7423036,-
200823,コンサルティング,日本スペンサースチュアート（株）,東京都千代田区一番町１８　川喜多メモリアルビル,35.6885702,139.7423036,-
204198,コンサルティング,（株）インターブランド　ジャパン,東京都千代田区一番町１８　川喜多メモリアルビル,35.6885702,139.7423036,-
360091,他サービス,ＳＲＩ　インターナショナル日本支社,東京都千代田区一番町２　パークサイドハウス８階,35.6887696,139.7448036,-
100819,損害保険,ジェイアイ傷害火災保険（株）,東京都千代田区一番町２０－５,35.6889749,139.7423153,-
204139,旅行,（株）フランストラベルセンター,東京都千代田区一番町２３－３　日本生命一番町ビル,35.6874519,139.7432286,-
101061,映像・音楽,（株）日本国際映画著作権協会,東京都千代田区一番町２３－３　日本生命一番町ビル６階,35.6874519,139.7432286,-
101029,通信・放送,Ｔ－Ｓｙｓｔｅｍｓ　ジャパン（株）,東京都千代田区一番町２９－１　番町ハウス,35.6871429,139.7431288,-
104116,海運,ハパックロイドジャパン（株）,東京都千代田区一番町４－８７　ハパックロイドハウス,35.6876176,139.7423903,-
12830,鉄鋼・金属卸売,エフ・ジェイ・ディー・ジャパン（株）,東京都千代田区一番町５　アトラスビル４階,35.6875427,139.7428294,-
209847,精密機器卸売,レールダル　メディカル　ジャパン（株）,東京都千代田区一番町８　一番町ＦＳビル,35.6869041,139.7405518,-
402961,輸送用機器卸売,トライアンフ・ジャパン（株）,東京都千代田区一番町９－２３　一番町ビル１階,35.6874565,139.7432338,-
403385,輸送用機器卸売,ＬＥＩＴＮＥＲ－ＰＯＭＡ　ＪＡＰＡＮ（株）,東京都千代田区永田町１－１１－３２　全国町村会館西館,35.6787882,139.7416119,-
360029,電気機器,ジ・エス・エム・シー・ジャパン（株）,東京都千代田区永田町２－１０－２　永田町ＴＢＲビル８０９号,35.6746169,139.7411695,-
210329,損害保険,エーオンジャパン（株）,東京都千代田区永田町２－１０－３　キャピトルタワー１１階,35.6739689,139.7407736,-
222290,その他卸売,エーオン　ベンフィールド　ジャパン（株）,東京都千代田区永田町２－１０－３　キャピトルタワー１１階,35.6739689,139.7407736,-
410113,航空,スイス　インターナショナル　エアラインズ（日本支社）,東京都千代田区永田町２－１１－１　スイスハウス,35.6735714,139.7403941,-
2620,化学,デュポン（株）,東京都千代田区永田町２－１１－１　山王パークタワー,35.6733558,139.7403363,-
104130,化学卸売,旭・デュポン　フラッシュスパン　プロダクツ（株）,東京都千代田区永田町２－１１－１　山王パークタワー,35.6733558,139.7403363,-
201223,投信・投資顧問,ドイチェ・アセット・マネジメント（株）,東京都千代田区永田町２－１１－１　山王パークタワー,35.6733558,139.7403363,-
208065,化学,デュポン帝人アドバンスドペーパー（株）,東京都千代田区永田町２－１１－１　山王パークタワー,35.6733558,139.7403363,-
224100,他金融,ＤＢ信託（株）,東京都千代田区永田町２－１１－１　山王パークタワー,35.6733558,139.7403363,-
403067,化学卸売,インビスタ　ジャパン（株）,東京都千代田区永田町２－１１－１　山王パークタワー,35.6733558,139.7403363,-
999170,証券,ドイツ証券（株）,東京都千代田区永田町２－１１－１　山王パークタワー,35.6733558,139.7403363,-
104020,精密機器卸売,ソーリン・グループ（株）,東京都千代田区永田町２－１１－１　山王パークタワー１０階,35.6731479,139.7406938,-
100093,投信・投資顧問,ベアリング投信投資顧問（株）,東京都千代田区永田町２－１１－１　山王パークタワー１２階,35.6731479,139.7406938,-
360034,情報・システム・ソフト,ソフトウェア・エー・ジー（株）,東京都千代田区永田町２－１１－１　山王パークタワー１２階,35.6731479,139.7406938,-
990780,銀行,ユナイテッド・オーバーシーズ銀行（東京支店）,東京都千代田区永田町２－１１－１　山王パークタワー１３階,35.6731479,139.7406938,-
990390,銀行,ドイツ銀行（東京支店）,東京都千代田区永田町２－１１－１　山王パークタワー１９階,35.6731479,139.7406938,-
990720,銀行,スタンダードチャータード銀行,東京都千代田区永田町２－１１－１　山王パークタワー２１階,35.6731479,139.7406938,-
201067,食料品卸売,フィリップ　モリス　ジャパン（株）,東京都千代田区永田町２－１１－１　山王パークタワー２２階,35.6731479,139.7406938,-
2960,化学卸売,エスティ　ローダー（株）,東京都千代田区永田町２－１１－１　山王パークタワー２４階,35.6731479,139.7406938,-
205222,コンサルティング,（株）ラザード　フレール,東京都千代田区永田町２－１１－１　山王パークタワー２５階,35.6731479,139.7406938,-
